/**
 Export to JSON plugin for PHPMyAdmin
 @version 0.1
 */

// Database 'exercise'
// exercise.x50c_addresses_links

[{"lid": 14,"cid": 89,"title": "台南市立游泳池","url": "","address": "台南市南區體育路100號","zip": 700,"city": "台南市","country": "南區","lon": 120.206,"lat": 22.9783,"zoom": 16,"phone": "06-2156837","mobile": "","fax": "","contemail": "","opentime": "8:00~22:00","logourl": "","submitter": 23,"status": 2,"date": 1258938364,"hits": 12304,"rating": 6.5000,"votes": 4,"comments": 0}, {"lid": 13,"cid": 91,"title": "勝利國小","url": "","address": "台南市東區勝利路11號","zip": 701,"city": "東區","country": "","lon": 120.218,"lat": 22.9884,"zoom": 16,"phone": "06-2372982","mobile": "","fax": "","contemail": "","opentime": "週六～週日8:00~19:00","logourl": "","submitter": 12,"status": 2,"date": 1282880603,"hits": 2755,"rating": 8.5000,"votes": 2,"comments": 0}, {"lid": 12,"cid": 58,"title": "中山土風舞隊","url": "","address": "中山公園","zip": 700,"city": "台南市","country": "北區","lon": 120.211,"lat": 23.0015,"zoom": 16,"phone": "","mobile": 0938047593,"fax": "","contemail": "","opentime": "每天上午7:00~9:00","logourl": " ","submitter": 22,"status": 1,"date": 1258514779,"hits": 908,"rating": 0.0000,"votes": 0,"comments": 0}, {"lid": 8,"cid": 91,"title": "進學國小","url": "http://www.chps.tn.edu.tw/","address": "台南市中西區南寧街47號","zip": 700,"city": "中西區","country": "","lon": 120.201,"lat": 22.985,"zoom": 16,"phone": "06-2133007","mobile": "","fax": "","contemail": "","opentime": "操場、籃球場開放時間
週一、週二、週四、週五16:30~19:00
週三13:00~19:00
週六、日6:00~19:00

每年五月至十月為泳池運作時期。
五、六、九、十月配合學生上課不對外開放，僅週六及]週日對外開放。
","logourl": "","submitter": 1,"status": 2,"date": 1321950335,"hits": 2580,"rating": 9.0000,"votes": 1,"comments": 0}, {"lid": 7,"cid": 73,"title": "聚光隊","url": "","address": "台南公園","zip": 700,"city": "台南市","country": "北區","lon": 120.21,"lat": 23.0014,"zoom": 16,"phone": "06-2223014","mobile": "0911391336、0952374523","fax": "","contemail": "","opentime": "週一至週日上午6:30~10:00","logourl": "","submitter": 1,"status": 2,"date": 1258437715,"hits": 728,"rating": 1.0000,"votes": 1,"comments": 0}, {"lid": 19,"cid": 73,"title": "關聖羽球隊","url": "","address": "台南市裕孝路118號（關聖社區活動中心）","zip": 709,"city": "台南市","country": "東區","lon": 120.243,"lat": 22.9834,"zoom": 16,"phone": "","mobile": 0920884596,"fax": "","contemail": "","opentime": "週一～週五上午10:00~12:00","logourl": " ","submitter": 1,"status": 1,"date": 1258938028,"hits": 899,"rating": 0.0000,"votes": 0,"comments": 0}, {"lid": 18,"cid": 89,"title": "棒球場","url": "","address": "台南市體育路10號","zip": 700,"city": "台南市","country": "南區","lon": 120.206,"lat": 22.9783,"zoom": 16,"phone": "(06)2159825","mobile": "","fax": "","contemail": "","opentime": "","logourl": " ","submitter": 1,"status": 1,"date": 1258937548,"hits": 1407,"rating": 0.0000,"votes": 0,"comments": 0}, {"lid": 21,"cid": 91,"title": "博愛國小","url": "http://www.paes.tn.edu.tw/","address": "台南市前鋒路100號","zip": 701,"city": "東區","country": "","lon": 120.213,"lat": 22.9929,"zoom": 16,"phone": "06-2377905","mobile": "","fax": "","contemail": "","opentime": "8:00~19:00","logourl": "","submitter": 1,"status": 2,"date": 1259202378,"hits": 1004,"rating": 0.0000,"votes": 0,"comments": 0}, {"lid": 22,"cid": 91,"title": "大同國小","url": "http://www.ttes.tn.edu.tw/","address": "台南市榮譽街30號","zip": 701,"city": "東區","country": "","lon": 120.216,"lat": 22.9739,"zoom": 16,"phone": "06-2157589","mobile": "","fax": "","contemail": "","opentime": "08:00~21:00","logourl": "","submitter": 1,"status": 2,"date": 1259202383,"hits": 728,"rating": 0.0000,"votes": 0,"comments": 0}, {"lid": 23,"cid": 91,"title": "東光國小","url": "http://www.tkes.tn.edu.tw/","address": "台南市東光路1段39號","zip": 701,"city": "東區","country": "","lon": 120.231,"lat": 22.9914,"zoom": 16,"phone": "06-2376534","mobile": "","fax": "","contemail": "","opentime": "08:00~17:00","logourl": "","submitter": 1,"status": 2,"date": 1259202392,"hits": 1151,"rating": 0.0000,"votes": 0,"comments": 0}, {"lid": 24,"cid": 36,"title": "槌球場","url": "","address": "台南市國民路532巷60號","zip": 700,"city": "台南市","country": "南區","lon": 120.206,"lat": 22.974,"zoom": 16,"phone": "","mobile": 0933670311,"fax": "","contemail": "","opentime": "上午5:30~8:30；下午2:00~5:30","logourl": " ","submitter": 22,"status": 1,"date": 1259043170,"hits": 735,"rating": 1.0000,"votes": 1,"comments": 0}, {"lid": 27,"cid": 49,"title": "玄武空手道","url": "","address": "台南市東門路一段354號9樓","zip": 701,"city": "東區","country": "","lon": 120.218,"lat": 22.9867,"zoom": 17,"phone": "(06)2749320","mobile": "","fax": "","contemail": "","opentime": "每週一到六PM8:00-9:20
每週六PM3:00-5:00","logourl": "","submitter": 35,"status": 2,"date": 1282897552,"hits": 815,"rating": 9.0000,"votes": 4,"comments": 0}, {"lid": 28,"cid": 85,"title": "台南市合氣道協會","url": "","address": "台南市北區大興街 2 2 6 巷 5 0 號(大港里文康活動中心)","zip": 704,"city": "北區","country": "大港里","lon": 120.188,"lat": 23.011,"zoom": 17,"phone": "","mobile": 0932708464,"fax": "","contemail": "","opentime": "","logourl": " ","submitter": 35,"status": 1,"date": 1259208064,"hits": 740,"rating": 10.0000,"votes": 2,"comments": 0}, {"lid": 29,"cid": 85,"title": "大恩合氣道","url": "","address": "台南市大同路二段750巷186號(大恩社區活動中心)","zip": 702,"city": "南區","country": "大恩里","lon": 120.213,"lat": 22.9662,"zoom": 16,"phone": "","mobile": 0935333000,"fax": "","contemail": "","opentime": "每週二四PM7:30-9:00","logourl": " ","submitter": 35,"status": 1,"date": 1259208059,"hits": 648,"rating": 1.0000,"votes": 1,"comments": 0}, {"lid": 30,"cid": 29,"title": "羽球","url": "","address": "台南市府緯街4巷6號(仙草里活動中心)","zip": 700,"city": "中區","country": "仙草里","lon": 120.199,"lat": 22.9846,"zoom": 17,"phone": "","mobile": 0922184757,"fax": "","contemail": "","opentime": "每週六AM7:00-10:00","logourl": " ","submitter": 35,"status": 1,"date": 1259208054,"hits": 629,"rating": 0.0000,"votes": 0,"comments": 0}, {"lid": 31,"cid": 38,"title": "中山聯盟","url": "","address": "安平區夜間球場","zip": 708,"city": "安平區","country": "","lon": 120.17,"lat": 22.9876,"zoom": 16,"phone": "","mobile": "","fax": "","contemail": "","opentime": "每週日7:30-16:30
週一~六 19:00-22:00","logourl": "","submitter": 35,"status": 2,"date": 1359442453,"hits": 1062,"rating": 0.0000,"votes": 0,"comments": 0}, {"lid": 32,"cid": 29,"title": "雷霆羽球","url": "","address": "台南市光州路36號","zip": 708,"city": "安平區","country": "金城里","lon": 120.16,"lat": 22.9897,"zoom": 16,"phone": "","mobile": 0916107888,"fax": "","contemail": "","opentime": "AM7:00-9:00","logourl": " ","submitter": 35,"status": 1,"date": 1259208044,"hits": 701,"rating": 0.0000,"votes": 0,"comments": 0}, {"lid": 33,"cid": 29,"title": "南市教師聯隊","url": "","address": "台南市立羽球館","zip": 702,"city": "南區","country": "","lon": 120.21,"lat": 22.9761,"zoom": 16,"phone": "","mobile": 0931923708,"fax": "","contemail": "","opentime": "PM3:00-5:00","logourl": " ","submitter": 35,"status": 1,"date": 1259208037,"hits": 1150,"rating": 0.0000,"votes": 0,"comments": 0}, {"lid": 34,"cid": 29,"title": "建友羽球隊","url": "","address": "市立羽球館","zip": 702,"city": "南區","country": "","lon": 120.21,"lat": 22.9762,"zoom": 16,"phone": "","mobile": 0929081137,"fax": "","contemail": "","opentime": "每週三六PM9:00-11:00","logourl": "","submitter": 35,"status": 2,"date": 1259208093,"hits": 928,"rating": 0.0000,"votes": 0,"comments": 0}, {"lid": 35,"cid": 38,"title": "協大正佳慢速壘球隊","url": "","address": "台南市夜間球場","zip": 708,"city": "安平區","country": "","lon": 120.165,"lat": 22.9888,"zoom": 16,"phone": "","mobile": 0933351900,"fax": "","contemail": "","opentime": "每週日8:00-17:00","logourl": " ","submitter": 35,"status": 1,"date": 1259208032,"hits": 824,"rating": 10.0000,"votes": 1,"comments": 0}, {"lid": 931,"cid": 147,"title": "台南市立醫院","url": "","address": "台南市東區崇德路 670 號","zip": 701,"city": "東區","country": "","lon": 120.227,"lat": 22.9687,"zoom": 16,"phone": "(06) 260-9926","mobile": "","fax": "(06) 260-6351","contemail": "","opentime": "無限制","logourl": " ","submitter": 1,"status": 1,"date": 1323143639,"hits": 874,"rating": 0.0000,"votes": 0,"comments": 0}, {"lid": 930,"cid": 82,"title": "福隆劍道館","url": "","address": "台南市麻豆區東角里文昌路18號","zip": 721,"city": "麻豆區","country": "","lon": 120.253,"lat": 23.1861,"zoom": 16,"phone": "","mobile": 0927377696,"fax": "","contemail": "","opentime": "每週日AM08:00~10:00","logourl": " ","submitter": 146,"status": 1,"date": 1322228332,"hits": 966,"rating": 0.0000,"votes": 0,"comments": 0}, {"lid": 37,"cid": 29,"title": "66王朝羽球隊","url": "","address": "台南市市立羽球館","zip": 702,"city": "南區","country": "","lon": 120.21,"lat": 22.9761,"zoom": 16,"phone": "","mobile": 0982176636,"fax": "","contemail": "","opentime": "每週三PM3:00-5:00","logourl": " ","submitter": 35,"status": 1,"date": 1259208020,"hits": 2897,"rating": 0.0000,"votes": 0,"comments": 0}, {"lid": 38,"cid": 135,"title": "華興瑜珈班","url": "","address": "華興振興里活動中心","zip": "","city": "","country": "","lon": 120.185,"lat": 22.9914,"zoom": 16,"phone": "(06)2086500","mobile": "","fax": "","contemail": "","opentime": "每週一三五 7:30-10:20","logourl": " ","submitter": 35,"status": 2,"date": 1259225499,"hits": 491,"rating": 0.0000,"votes": 0,"comments": 0}, {"lid": 39,"cid": 59,"title": "華興韻律舞班","url": "","address": "華興振興里活動中心","zip": "","city": "","country": "","lon": 0,"lat": 0,"zoom": 16,"phone": "(06)2086500","mobile": "","fax": "","contemail": "","opentime": "每週一三五 7:30-9:50","logourl": " ","submitter": 35,"status": 1,"date": 1259208009,"hits": 486,"rating": 0.0000,"votes": 0,"comments": 0}, {"lid": 40,"cid": 58,"title": "賢北里文康土風舞班","url": "","address": "賢北里文康活動中心","zip": 704,"city": "北區","country": "賢北里","lon": 0,"lat": 0,"zoom": 16,"phone": "(06)2801581","mobile": "","fax": "","contemail": "","opentime": "每週一至六 AM7:00-9:00
                     PM20:00-21:30","logourl": " ","submitter": 35,"status": 1,"date": 1259208003,"hits": 507,"rating": 0.0000,"votes": 0,"comments": 0}, {"lid": 41,"cid": 135,"title": "和順社區瑜珈班","url": "","address": "台南市北區和順里公園南路406號(和順里活動中心)","zip": 704,"city": "北區","country": "和順里","lon": 120.201,"lat": 23.0038,"zoom": 16,"phone": "(06)2253155","mobile": "","fax": "","contemail": "","opentime": "每週一至六 PM5:00-7:00","logourl": " ","submitter": 35,"status": 1,"date": 1259207997,"hits": 527,"rating": 0.0000,"votes": 0,"comments": 0}, {"lid": 42,"cid": 59,"title": "和順社區韻律舞班","url": "","address": "台南市北區和順里公園南路406號(和順里活動中心)","zip": 704,"city": "北區","country": "和順里","lon": 120.201,"lat": 23.0038,"zoom": 16,"phone": "(06)2253155","mobile": "","fax": "","contemail": "","opentime": "和順里活動中心
","logourl": " ","submitter": 35,"status": 1,"date": 1259207990,"hits": 869,"rating": 0.0000,"votes": 0,"comments": 0}, {"lid": 43,"cid": 31,"title": "和順社區桌球班","url": "","address": "台南市北區和順里公園南路406號(和順里活動中心)","zip": 704,"city": "北區","country": "和順里","lon": 120.201,"lat": 23.0038,"zoom": 16,"phone": "(06)2253155","mobile": "","fax": "","contemail": "","opentime": "和順里活動中心","logourl": " ","submitter": 35,"status": 1,"date": 1259207983,"hits": 1056,"rating": 0.0000,"votes": 0,"comments": 0}, {"lid": 44,"cid": 121,"title": "武術班","url": "","address": "台南市北區和緯路三段370號(文元文成里活動中心)","zip": 704,"city": "北區","country": "文成里","lon": 120.201,"lat": 23.0038,"zoom": 16,"phone": "","mobile": "","fax": "","contemail": "","opentime": "每週五六 PM7:30-8:30","logourl": " ","submitter": 35,"status": 1,"date": 1259207976,"hits": 585,"rating": 0.0000,"votes": 0,"comments": 0}, {"lid": 45,"cid": 120,"title": "文元文成里鼓團","url": "","address": "台南市北區和緯路三段370號(文元文成里活動中心)","zip": 704,"city": "北區","country": "文成里","lon": 120.2,"lat": 23.0118,"zoom": 16,"phone": "","mobile": "","fax": "","contemail": "","opentime": "每週六AM9:30-10:00","logourl": " ","submitter": 35,"status": 1,"date": 1259207968,"hits": 745,"rating": 0.0000,"votes": 0,"comments": 0}, {"lid": 46,"cid": 88,"title": "臺南市立田徑場","url": "","address": "台南市體育路10號","zip": 702,"city": "南區","country": "","lon": 120.206,"lat": 22.9781,"zoom": 16,"phone": "(06)2157691","mobile": "","fax": "","contemail": "","opentime": "開放時間：上午04:00~晚上22:00
(平時開放供民眾使用不收費)
但如舉辦大型活動時則依本場使用管理規則

","logourl": "","submitter": 34,"status": 2,"date": 1259244999,"hits": 4396,"rating": 0.0000,"votes": 0,"comments": 0}, {"lid": 47,"cid": 88,"title": "臺南市立籃球場","url": "","address": "台南市體育路10號","zip": 702,"city": "南區","country": "","lon": 120.209,"lat": 22.9748,"zoom": 16,"phone": "","mobile": "","fax": "","contemail": "","opentime": "全天開放
(舉辦大型活動時則依場地使用管理規則)

","logourl": "","submitter": 34,"status": 2,"date": 1259295065,"hits": 4720,"rating": 0.0000,"votes": 0,"comments": 0}, {"lid": 48,"cid": 122,"title": "第1屆亞洲殘障保齡球錦標賽","url": "","address": "台南市東區中華東路1段26號","zip": 701,"city": "東區","country": "","lon": 120.234,"lat": 22.9974,"zoom": 16,"phone": "2991111-8321","mobile": 0933669183,"fax": 2983181,"contemail": "","opentime": "98年12月1日至4日","logourl": " ","submitter": 32,"status": 1,"date": 1260255737,"hits": 968,"rating": 8.0000,"votes": 1,"comments": 0}, {"lid": 49,"cid": 88,"title": "臺南市青少年極限運動場","url": "","address": "臺南市體育路10號","zip": 702,"city": "南區","country": "","lon": 120.207,"lat": 22.9787,"zoom": 16,"phone": "","mobile": "","fax": "","contemail": "","opentime": "機關團體借用時間：
上午8時~下午16時
開放時段：
下午16時~晚上22時
週六、週日：
上午8時~晚上22時
","logourl": "","submitter": 34,"status": 2,"date": 1259548093,"hits": 4398,"rating": 0.0000,"votes": 0,"comments": 0}, {"lid": 50,"cid": 88,"title": "臺南市立和順射箭場","url": "","address": "台南市安南區長和路一段260號","zip": 709,"city": "安南區","country": "","lon": 120.231,"lat": 23.0603,"zoom": 16,"phone": "","mobile": "","fax": "","contemail": "","opentime": "依市立體育場專業場地借用流程辦理","logourl": " ","submitter": 34,"status": 1,"date": 1259329413,"hits": 5686,"rating": 10.0000,"votes": 1,"comments": 0}, {"lid": 51,"cid": 89,"title": "臺南市立網球場","url": "","address": "臺南市體育路10號","zip": 702,"city": "南區","country": "","lon": 120.211,"lat": 22.979,"zoom": 16,"phone": "","mobile": "","fax": "","contemail": "","opentime": "上午6時~晚上22時(有夜間照明設備)","logourl": " ","submitter": 34,"status": 1,"date": 1259329938,"hits": 1805,"rating": 0.0000,"votes": 0,"comments": 0}, {"lid": 52,"cid": 89,"title": "臺南市立軟式網球場","url": "","address": "臺南市體育路10號","zip": 702,"city": "南區","country": "","lon": 120.212,"lat": 22.9759,"zoom": 16,"phone": "(06)2154394、2156311","mobile": "","fax": "","contemail": "","opentime": "上午6時~晚上22時(有夜間照明設備)","logourl": " ","submitter": 34,"status": 1,"date": 1259330451,"hits": 1576,"rating": 10.0000,"votes": 1,"comments": 0}, {"lid": 53,"cid": 74,"title": "運動舞班","url": "","address": "台南市北區和緯路三段370號(文元文成里活動中心)","zip": 704,"city": "北區","country": "文成里","lon": 120.2,"lat": 23.0116,"zoom": 16,"phone": "","mobile": "","fax": "","contemail": "","opentime": "每週一三五六日PM8:10-10:10
每週一至五AM8:10-10:10
每週三五:PM6:60-8:30","logourl": " ","submitter": 35,"status": 1,"date": 1260255726,"hits": 914,"rating": 0.0000,"votes": 0,"comments": 0}, {"lid": 54,"cid": 47,"title": "太極拳","url": "","address": "台南市北區和緯路三段370號(文元文成活動中心)","zip": 704,"city": "北區","country": "文成里","lon": 120.2,"lat": 23.0117,"zoom": 16,"phone": "","mobile": "","fax": "","contemail": "","opentime": "每週二四PM7:30-8:30","logourl": " ","submitter": 35,"status": 1,"date": 1260255712,"hits": 1369,"rating": 0.0000,"votes": 0,"comments": 0}, {"lid": 55,"cid": 135,"title": "瑜珈早班","url": "","address": "台南市北區和緯路三段370號(文元文成里活動中心)","zip": 704,"city": "北區","country": "文成里","lon": 120.2,"lat": 23.0117,"zoom": 16,"phone": "","mobile": "","fax": "","contemail": "","opentime": ":每週一三PM7:00-8:30","logourl": " ","submitter": 35,"status": 1,"date": 1260255648,"hits": 933,"rating": 0.0000,"votes": 0,"comments": 0}, {"lid": 56,"cid": 48,"title": "跆拳班","url": "","address": "台南市北區和緯路三段370號(文元文成里活動中心)","zip": 704,"city": "北區","country": "文成里","lon": 120.2,"lat": 23.0117,"zoom": 16,"phone": "","mobile": "","fax": "","contemail": "","opentime": "每週二六PM7:30-9:30","logourl": " ","submitter": 35,"status": 1,"date": 1260255631,"hits": 849,"rating": 0.0000,"votes": 0,"comments": 0}, {"lid": 57,"cid": 135,"title": "瑜珈晚班","url": "","address": "台南市北區和緯路三段370號(文元文成里活動中心)","zip": 704,"city": "北區","country": "文成里","lon": 120.2,"lat": 23.0117,"zoom": 16,"phone": "","mobile": "","fax": "","contemail": "","opentime": "每週一三五AM8:40-9:40","logourl": " ","submitter": 35,"status": 1,"date": 1260255615,"hits": 611,"rating": 0.0000,"votes": 0,"comments": 0}, {"lid": 58,"cid": 24,"title": "現代舞班","url": "","address": "台南市北區和緯路三段370號(文元文成里活動中心)","zip": 704,"city": "北區","country": "文成里","lon": 120.2,"lat": 23.0117,"zoom": 16,"phone": "","mobile": "","fax": "","contemail": "","opentime": "每週一至五AM7:00-8:30","logourl": " ","submitter": 35,"status": 1,"date": 1260255603,"hits": 571,"rating": 0.0000,"votes": 0,"comments": 0}, {"lid": 59,"cid": 24,"title": "創作舞班","url": "","address": "台南市北區和緯路三段370號(文元文成里活動中心)","zip": 704,"city": "北區","country": "文成里","lon": 120.2,"lat": 23.0117,"zoom": 16,"phone": "","mobile": "","fax": "","contemail": "","opentime": "每週一至五AM9:30-11:00","logourl": " ","submitter": 35,"status": 1,"date": 1260255584,"hits": 874,"rating": 0.0000,"votes": 0,"comments": 0}, {"lid": 60,"cid": 58,"title": "小康社區土風舞班","url": "","address": "台南市大武街352號","zip": 704,"city": "北區","country": "小康里","lon": 120.218,"lat": 23.0167,"zoom": 16,"phone": "","mobile": "","fax": "","contemail": "","opentime": "每週二四六PM7:30-8:30","logourl": " ","submitter": 35,"status": 1,"date": 1260255565,"hits": 546,"rating": 0.0000,"votes": 0,"comments": 0}, {"lid": 61,"cid": 20,"title": "小康社區氣功班","url": "","address": "台南市大武街352號(小康社區活動中心)","zip": 704,"city": "北區","country": "小康里","lon": 120.218,"lat": 23.0167,"zoom": 16,"phone": "","mobile": "","fax": "","contemail": "","opentime": "每日AM5:40-7:00","logourl": " ","submitter": 35,"status": 1,"date": 1260255551,"hits": 832,"rating": 0.0000,"votes": 0,"comments": 0}, {"lid": 62,"cid": 59,"title": "小康社區韻律舞班","url": "","address": "台南市大武街352號(小康社區活動中心)","zip": 704,"city": "北區","country": "小康里","lon": 120.218,"lat": 23.0167,"zoom": 16,"phone": "","mobile": "","fax": "","contemail": "","opentime": "每日AM6:30-7:30","logourl": " ","submitter": 35,"status": 1,"date": 1260255532,"hits": 508,"rating": 0.0000,"votes": 0,"comments": 0}, {"lid": 63,"cid": 87,"title": "小康社區居家護理體驗營","url": "","address": "台南市大武街352號(小康社區活動中心)","zip": 704,"city": "北區","country": "小康里","lon": 120.218,"lat": 23.0167,"zoom": 16,"phone": "","mobile": "","fax": "","contemail": "","opentime": "每日PM7:00-10:00","logourl": " ","submitter": 35,"status": 1,"date": 1260255541,"hits": 969,"rating": 0.0000,"votes": 0,"comments": 0}, {"lid": 64,"cid": 87,"title": "小康社區健康講座、體認活動","url": "","address": "台南市大武街352號(小康社區活動中心)","zip": 704,"city": "北區","country": "小康里","lon": 120.218,"lat": 23.0167,"zoom": 16,"phone": "","mobile": "","fax": "","contemail": "","opentime": "每日PM7:30-9:00","logourl": " ","submitter": 35,"status": 1,"date": 1260255486,"hits": 1256,"rating": 0.0000,"votes": 0,"comments": 0}, {"lid": 65,"cid": 47,"title": "小康社區太極拳班","url": "","address": "台南市大武街352號(小康社區活動中心)","zip": 704,"city": "北區","country": "小康里","lon": 120.218,"lat": 23.0168,"zoom": 16,"phone": "","mobile": "","fax": "","contemail": "","opentime": "每日PM7:00-9:00","logourl": " ","submitter": 35,"status": 1,"date": 1260255472,"hits": 487,"rating": 0.0000,"votes": 0,"comments": 0}, {"lid": 66,"cid": 120,"title": "大恩社區登山健行隊","url": "","address": "台南市大同路二段750巷186號(大恩社區活動中心)","zip": 702,"city": "南區","country": "大恩里","lon": 120.213,"lat": 22.9662,"zoom": 16,"phone": "(06)2638235","mobile": "","fax": "","contemail": "","opentime": "每週日上午4:30集合，5:00出發","logourl": " ","submitter": 35,"status": 1,"date": 1260255451,"hits": 732,"rating": 0.0000,"votes": 0,"comments": 0}, {"lid": 67,"cid": 135,"title": "大恩社區基礎生活瑜珈班","url": "","address": "台南市大同路二段750巷186號(大恩社區活動中心)","zip": 702,"city": "南區","country": "大恩里","lon": 120.213,"lat": 22.9662,"zoom": 16,"phone": "(06)2674441","mobile": "","fax": "","contemail": "","opentime": "每週一三五PM7:30-9:00","logourl": " ","submitter": 35,"status": 1,"date": 1260255430,"hits": 608,"rating": 0.0000,"votes": 0,"comments": 0}, {"lid": 68,"cid": 135,"title": "大恩社區基礎生活瑜珈班","url": "","address": "台南市大同路二段750巷186號(大恩社區活動中心)","zip": 702,"city": "南區","country": "大恩里","lon": 120.213,"lat": 22.9662,"zoom": 16,"phone": "(06)2695055","mobile": "","fax": "","contemail": "","opentime": "每週六AM8:00-10:00","logourl": " ","submitter": 35,"status": 1,"date": 1260255398,"hits": 504,"rating": 0.0000,"votes": 0,"comments": 0}, {"lid": 69,"cid": 24,"title": "大恩社區基礎運動流行熱舞班","url": "","address": "台南市大同路二段750巷186號(大恩社區活動中心)","zip": 702,"city": "南區","country": "大恩里","lon": 120.213,"lat": 22.9662,"zoom": 16,"phone": "(06)2678663","mobile": "","fax": "","contemail": "","opentime": "每週二五PM7:30-8:30","logourl": " ","submitter": 35,"status": 1,"date": 1260255389,"hits": 897,"rating": 0.0000,"votes": 0,"comments": 0}, {"lid": 70,"cid": 60,"title": "大恩社區元極舞隊","url": "","address": "台南市大同路二段750巷186號(大恩社區活動中心)","zip": 702,"city": "南區","country": "大恩里","lon": 120.213,"lat": 22.9662,"zoom": 16,"phone": "(06)2672380","mobile": "","fax": "","contemail": "","opentime": "每週一至五AM6:00-9:30","logourl": " ","submitter": 35,"status": 1,"date": 1260255382,"hits": 520,"rating": 0.0000,"votes": 0,"comments": 0}, {"lid": 71,"cid": 31,"title": "大恩社區桌球隊","url": "","address": "台南市大同路二段750巷186號(大恩社區活動中心)","zip": 702,"city": "南區","country": "大恩里","lon": 120.213,"lat": 22.9662,"zoom": 16,"phone": "(06)2679540","mobile": "","fax": "","contemail": "","opentime": "配合活動中心開放時間","logourl": " ","submitter": 35,"status": 1,"date": 1260255353,"hits": 757,"rating": 0.0000,"votes": 0,"comments": 0}, {"lid": 72,"cid": 110,"title": "大恩社區氣功隊","url": "","address": "台南市大同路二段750巷186號(大恩社區活動中心)","zip": 702,"city": "南區","country": "大恩里","lon": 120.213,"lat": 22.9661,"zoom": 16,"phone": "(06)2674033","mobile": "","fax": "","contemail": "","opentime": "每週一至五AM4:00-5:00","logourl": " ","submitter": 35,"status": 1,"date": 1260255329,"hits": 604,"rating": 0.0000,"votes": 0,"comments": 0}, {"lid": 73,"cid": 48,"title": "大恩社區跆拳道隊","url": "","address": "台南市大同路二段750巷186號(大恩社區活動中心)","zip": 702,"city": "南區","country": "大恩里","lon": 120.213,"lat": 22.9662,"zoom": 16,"phone": "(06)2692969","mobile": "","fax": "","contemail": "","opentime": "每週二至六PM6:00-9:30","logourl": " ","submitter": 35,"status": 1,"date": 1260255313,"hits": 786,"rating": 9.0000,"votes": 1,"comments": 0}, {"lid": 74,"cid": 88,"title": "臺南市立滑輪溜冰場","url": "","address": "台南市安平區建平8街與國平路口","zip": 708,"city": "安平區","country": "","lon": 120.171,"lat": 22.9924,"zoom": 16,"phone": "","mobile": "","fax": "","contemail": "","opentime": "一、選手訓練時間：
每週一至週六晚上六十至九時
週日上午六時至十一時
二、一般開放時間：
週一至週六上午八時至下午17時
週日上午十一時至下午17時","logourl": " ","submitter": 34,"status": 1,"date": 1259548830,"hits": 7340,"rating": 8.5000,"votes": 2,"comments": 0}, {"lid": 75,"cid": 113,"title": "大恩社區自行車隊","url": "","address": "台南市大同路二段750巷186號(大恩社區活動中心)","zip": 702,"city": "南區","country": "大恩里","lon": 120.213,"lat": 22.9662,"zoom": 16,"phone": "(06)2673568","mobile": "","fax": "","contemail": "","opentime": "每週一三六PM700集合大恩社區活動中心","logourl": " ","submitter": 35,"status": 1,"date": 1260255277,"hits": 810,"rating": 0.0000,"votes": 0,"comments": 0}, {"lid": 76,"cid": 51,"title": "泉南里社區香功班","url": "","address": "台南市府連路326巷2號(泉南里活動中心)","zip": 701,"city": "東區","country": "泉南里","lon": 120.215,"lat": 22.9849,"zoom": 17,"phone": "","mobile": "","fax": "","contemail": "","opentime": "每週一至六AM6:00-7:00","logourl": " ","submitter": 35,"status": 1,"date": 1260255259,"hits": 665,"rating": 0.0000,"votes": 0,"comments": 0}, {"lid": 77,"cid": 74,"title": "泉南里婦女晨間運動舞班","url": "","address": "台南市府連路326巷2號(泉南里活動中心)","zip": 701,"city": "東區","country": "泉南里","lon": 120.215,"lat": 22.9847,"zoom": 17,"phone": "","mobile": "","fax": "","contemail": "","opentime": "每週一至五AM6:00-7:00","logourl": " ","submitter": 35,"status": 1,"date": 1260255250,"hits": 591,"rating": 0.0000,"votes": 0,"comments": 0}, {"lid": 78,"cid": 68,"title": "泉南里有氧運動班","url": "","address": "台南市府連路326巷2號(泉南里活動中心)","zip": 701,"city": "東區","country": "泉南里","lon": 120.215,"lat": 22.9847,"zoom": 17,"phone": "","mobile": "","fax": "","contemail": "","opentime": "每週一至六AM6:00-7:00","logourl": " ","submitter": 35,"status": 1,"date": 1260255231,"hits": 627,"rating": 0.0000,"votes": 0,"comments": 0}, {"lid": 79,"cid": 120,"title": "泉南里健行團","url": "","address": "台南市府連路326巷2號(泉南里活動中心)","zip": 701,"city": "東區","country": "泉南里","lon": 120.215,"lat": 22.9847,"zoom": 17,"phone": "","mobile": "","fax": "","contemail": "","opentime": "不一定","logourl": " ","submitter": 35,"status": 1,"date": 1260255206,"hits": 615,"rating": 0.0000,"votes": 0,"comments": 0}, {"lid": 80,"cid": 59,"title": "塭南社區韻律舞班","url": "","address": "台南市塭南里環福街117號(塭南社區活動中心)","zip": 709,"city": "安南區","country": "塭南里","lon": 120.222,"lat": 23.0735,"zoom": 17,"phone": "","mobile": "","fax": "","contemail": "","opentime": "每週二AM9:00-11:00","logourl": " ","submitter": 35,"status": 1,"date": 1260255181,"hits": 748,"rating": 0.0000,"votes": 0,"comments": 0}, {"lid": 81,"cid": 68,"title": "塭南社區有氧舞蹈班","url": "","address": "台南市塭南里環福街117號(塭南社區活動中心)","zip": 709,"city": "安南區","country": "塭南里","lon": 120.222,"lat": 23.0735,"zoom": 17,"phone": "","mobile": "","fax": "","contemail": "","opentime": "每週四AM9:00-11:00","logourl": " ","submitter": 35,"status": 1,"date": 1260255166,"hits": 903,"rating": 0.0000,"votes": 0,"comments": 0}, {"lid": 82,"cid": 24,"title": "草湖寮舞蹈班","url": "","address": "台南市安中路一段700巷1號(草湖寮活動中心)","zip": 709,"city": "安南區","country": "草湖寮里","lon": 120.198,"lat": 23.0427,"zoom": 16,"phone": "","mobile": "","fax": "","contemail": "","opentime": "每週二三五PM7:30-10:00","logourl": " ","submitter": 35,"status": 1,"date": 1260255142,"hits": 737,"rating": 0.0000,"votes": 0,"comments": 0}, {"lid": 83,"cid": 24,"title": "淵中里舞蹈班","url": "","address": "台南市安中路3段381號(淵中里活動中心)","zip": 709,"city": "安南區","country": "淵中里","lon": 120.175,"lat": 23.049,"zoom": 16,"phone": "","mobile": "","fax": "","contemail": "","opentime": "每週一至六AM7:00-9:00","logourl": " ","submitter": 35,"status": 1,"date": 1260255133,"hits": 903,"rating": 0.0000,"votes": 0,"comments": 0}, {"lid": 84,"cid": 58,"title": "溪心里土風舞班","url": "","address": "台南市安南功安一街162號(溪心里活動中心)","zip": 709,"city": "安南區","country": "溪心里","lon": 120.18,"lat": 23.0498,"zoom": 16,"phone": "","mobile": "","fax": "","contemail": "","opentime": "每週一三五PM8:00-10:00","logourl": " ","submitter": 35,"status": 1,"date": 1260255107,"hits": 653,"rating": 0.0000,"votes": 0,"comments": 0}, {"lid": 85,"cid": 24,"title": "溪心里舞蹈班","url": "","address": "台南市安南功安一街162號(溪心里活動中心)","zip": 709,"city": "安南區","country": "溪心里","lon": 120.18,"lat": 23.0497,"zoom": 16,"phone": "","mobile": "","fax": "","contemail": "","opentime": "每週一至六AM7:30-9:30","logourl": " ","submitter": 35,"status": 1,"date": 1260255093,"hits": 555,"rating": 0.0000,"votes": 0,"comments": 0}, {"lid": 86,"cid": 135,"title": "溪心里瑜珈班","url": "","address": "台南市安南功安一街162號(溪心里活動中心)","zip": 709,"city": "安南區","country": "溪心里","lon": 120.18,"lat": 23.0498,"zoom": 16,"phone": "","mobile": "","fax": "","contemail": "","opentime": "每週一三六AM8:00-10:00","logourl": " ","submitter": 35,"status": 1,"date": 1260255078,"hits": 498,"rating": 0.0000,"votes": 0,"comments": 0}, {"lid": 87,"cid": 135,"title": "溪心里瑜珈班","url": "","address": "台南市安南功安一街162號(溪心里活動中心)","zip": 709,"city": "安南區","country": "溪心里","lon": 120.18,"lat": 23.0498,"zoom": 16,"phone": "","mobile": "","fax": "","contemail": "","opentime": "每週一三六PM7:30-9:00","logourl": " ","submitter": 35,"status": 1,"date": 1260255064,"hits": 459,"rating": 0.0000,"votes": 0,"comments": 0}, {"lid": 88,"cid": 135,"title": "安順里瑜珈班 ","url": "","address": "台南市育安街211號(安順里活動中心)","zip": 709,"city": "安南區","country": "安順里","lon": 120.215,"lat": 23.0508,"zoom": 17,"phone": "","mobile": "","fax": "","contemail": "","opentime": "每週三PM8:00-10:00","logourl": " ","submitter": 35,"status": 1,"date": 1260255027,"hits": 535,"rating": 0.0000,"votes": 0,"comments": 0}, {"lid": 89,"cid": 24,"title": "安順里媽媽教室跳舞班","url": "","address": "台南市育安街211號(安順里活動中心)","zip": 709,"city": "安南區","country": "安順里","lon": 120.215,"lat": 23.0509,"zoom": 16,"phone": "","mobile": "","fax": "","contemail": "","opentime": "每週二五PM8:00-9:30","logourl": " ","submitter": 35,"status": 1,"date": 1260255011,"hits": 876,"rating": 0.0000,"votes": 0,"comments": 0}, {"lid": 90,"cid": 31,"title": "安順里桌球班","url": "","address": "台南市育安街211號(安順里活動中心)","zip": 709,"city": "安南區","country": "安順里","lon": 120.215,"lat": 23.0508,"zoom": 16,"phone": "","mobile": "","fax": "","contemail": "","opentime": "每週二四PM8:00-10:00","logourl": " ","submitter": 35,"status": 1,"date": 1260254995,"hits": 607,"rating": 0.0000,"votes": 0,"comments": 0}, {"lid": 91,"cid": 48,"title": "長安社區跆拳道館","url": "","address": "台南市長溪路378號(長安社區活動中心)","zip": 709,"city": "安南區","country": "長安里","lon": 120.206,"lat": 23.0398,"zoom": 16,"phone": "","mobile": "","fax": "","contemail": "","opentime": "長安社區活動中心3樓","logourl": " ","submitter": 35,"status": 1,"date": 1260254976,"hits": 685,"rating": 10.0000,"votes": 1,"comments": 0}, {"lid": 92,"cid": 76,"title": "淵東里國標舞班","url": "","address": "台南市安南區智安二街70號(淵東里活動中心)","zip": 709,"city": "安南區","country": "淵東里","lon": 120.177,"lat": 23.0518,"zoom": 16,"phone": "","mobile": "","fax": "","contemail": "","opentime": "每週一至五AM7:30-10:00","logourl": " ","submitter": 35,"status": 1,"date": 1260254937,"hits": 641,"rating": 0.0000,"votes": 0,"comments": 0}, {"lid": 93,"cid": 58,"title": "淵東里土風舞班","url": "","address": "台南市安南區智安二街70號(淵東里活動中心)","zip": 709,"city": "安南區","country": "淵東里","lon": 120.177,"lat": 23.0522,"zoom": 16,"phone": "","mobile": "","fax": "","contemail": "","opentime": "每週一至日AM8:00-10:00","logourl": " ","submitter": 35,"status": 1,"date": 1260254922,"hits": 454,"rating": 0.0000,"votes": 0,"comments": 0}, {"lid": 94,"cid": 47,"title": "淵東里太極拳研習班","url": "","address": "台南市安南區智安二街70號(淵東里活動中心)","zip": 709,"city": "安南區","country": "淵東里","lon": 120.177,"lat": 23.0522,"zoom": 16,"phone": "","mobile": "","fax": "","contemail": "","opentime": "每週二四六PM7:00-9:00","logourl": " ","submitter": 35,"status": 1,"date": 1260254899,"hits": 617,"rating": 0.0000,"votes": 0,"comments": 0}, {"lid": 95,"cid": 48,"title": "淵東里跆拳道班","url": "","address": "台南市安南區智安二街70號(淵東里活動中心)","zip": 709,"city": "安南區","country": "淵東里","lon": 120.177,"lat": 23.0522,"zoom": 16,"phone": "","mobile": "","fax": "","contemail": "","opentime": "每週二四六PM7:00-9:00","logourl": " ","submitter": 35,"status": 1,"date": 1260254863,"hits": 894,"rating": 0.0000,"votes": 0,"comments": 0}, {"lid": 96,"cid": 75,"title": "淵東里十八式氣功班","url": "","address": "台南市安南區智安二街70號(淵東里活動中心)","zip": 709,"city": "安南區","country": "淵東里","lon": 120.177,"lat": 23.0522,"zoom": 16,"phone": "","mobile": "","fax": "","contemail": "","opentime": "每週一至六PM7:00-9:00","logourl": " ","submitter": 35,"status": 1,"date": 1260254844,"hits": 500,"rating": 0.0000,"votes": 0,"comments": 0}, {"lid": 97,"cid": 110,"title": "安慶里五行健康操班","url": "","address": "台南市安南區長溪路一段168巷133號(安慶里活動中心)","zip": 709,"city": "安南區","country": "安慶里","lon": 120.21,"lat": 23.0381,"zoom": 17,"phone": "","mobile": "","fax": "","contemail": "","opentime": "每週二四PM8:00-9:00","logourl": " ","submitter": 35,"status": 1,"date": 1260254830,"hits": 611,"rating": 0.0000,"votes": 0,"comments": 0}, {"lid": 98,"cid": 110,"title": "安慶里宇宙健身操班","url": "","address": "台南市安南區長溪路一段168巷133號(安慶里活動中心)","zip": 709,"city": "安南區","country": "安慶里","lon": 120.21,"lat": 23.0382,"zoom": 16,"phone": "","mobile": "","fax": "","contemail": "","opentime": "每週一五PM8:00-9:00","logourl": " ","submitter": 35,"status": 1,"date": 1260254807,"hits": 671,"rating": 0.0000,"votes": 0,"comments": 0}, {"lid": 99,"cid": 74,"title": "安慶里健康運動舞班","url": "","address": "台南市安南區長溪路一段168巷133號(安慶里活動中心)","zip": 709,"city": "安南區","country": "安慶里","lon": 120.21,"lat": 23.0381,"zoom": 16,"phone": "","mobile": "","fax": "","contemail": "","opentime": "每週一至五PM8:00-9:00","logourl": " ","submitter": 35,"status": 1,"date": 1260254782,"hits": 542,"rating": 0.0000,"votes": 0,"comments": 0}, {"lid": 100,"cid": 74,"title": "安慶里健康運動舞班","url": "","address": "台南市安南區長溪路一段168巷133號(安慶里活動中心)","zip": 709,"city": "安南區","country": "安慶里","lon": 120.21,"lat": 23.038,"zoom": 16,"phone": "","mobile": "","fax": "","contemail": "","opentime": "每週一至五AM7:30-9:00","logourl": " ","submitter": 35,"status": 1,"date": 1260254759,"hits": 501,"rating": 0.0000,"votes": 0,"comments": 0}, {"lid": 101,"cid": 135,"title": "安慶里體能活力瑜珈班","url": "","address": "台南市安南區長溪路一段168巷133號(安慶里活動中心)","zip": 709,"city": "安南區","country": "安慶里","lon": 120.21,"lat": 23.0381,"zoom": 16,"phone": "","mobile": "","fax": "","contemail": "","opentime": "每週三六PM8:00-9:00","logourl": " ","submitter": 35,"status": 1,"date": 1260254738,"hits": 471,"rating": 0.0000,"votes": 0,"comments": 0}, {"lid": 102,"cid": 76,"title": "安慶里國標舞班","url": "","address": "台南市安南區長溪路一段168巷133號(安慶里活動中心)","zip": 709,"city": "安南區","country": "安慶里","lon": 120.21,"lat": 23.0381,"zoom": 16,"phone": "","mobile": "","fax": "","contemail": "","opentime": "每週二四PM7:30-9:30","logourl": " ","submitter": 35,"status": 1,"date": 1260254713,"hits": 655,"rating": 0.0000,"votes": 0,"comments": 0}, {"lid": 103,"cid": 58,"title": "海東社區土風舞班","url": "","address": "台南市海佃路二段509巷65號(海東社區活動中心)","zip": 709,"city": "安南區","country": "海東里","lon": 120.185,"lat": 23.0415,"zoom": 16,"phone": "","mobile": "","fax": "","contemail": "","opentime": "週一至週六AM7:00-9:00","logourl": " ","submitter": 35,"status": 1,"date": 1260254708,"hits": 483,"rating": 0.0000,"votes": 0,"comments": 0}, {"lid": 104,"cid": 106,"title": "海東社區柔軟操","url": "","address": "台南市海佃路二段509巷65號(海東社區活動中心)","zip": 709,"city": "安南區","country": "海東里","lon": 120.185,"lat": 23.0419,"zoom": 16,"phone": "","mobile": "","fax": "","contemail": "","opentime": "每週二PM7:00-10:00","logourl": " ","submitter": 35,"status": 1,"date": 1260254672,"hits": 593,"rating": 0.0000,"votes": 0,"comments": 0}, {"lid": 105,"cid": 121,"title": "海東社區少年武術班","url": "","address": "台南市海佃路二段509巷65號(海東社區活動中心)","zip": 709,"city": "安南區","country": "海東里","lon": 120.185,"lat": 23.0415,"zoom": 16,"phone": "","mobile": "","fax": "","contemail": "","opentime": "每週一四PM7:00-9:00","logourl": " ","submitter": 35,"status": 1,"date": 1260254651,"hits": 865,"rating": 0.0000,"votes": 0,"comments": 0}, {"lid": 106,"cid": 58,"title": "四草社區土風舞班","url": "","address": "台南市四草里大眾街358號(四草社區活動中心)","zip": 709,"city": "安南區","country": "四草里","lon": 120.133,"lat": 23.0187,"zoom": 16,"phone": "","mobile": "","fax": "","contemail": "","opentime": "每週二四PM7:00-10:00","logourl": " ","submitter": 35,"status": 1,"date": 1260254631,"hits": 501,"rating": 0.0000,"votes": 0,"comments": 0}, {"lid": 107,"cid": 31,"title": "大涼社區桌球班","url": "","address": "台南市府前路二段二五八巷五五號(大涼社區活動中心)","zip": 700,"city": "中西區","country": "大涼里","lon": 120.191,"lat": 22.9933,"zoom": 16,"phone": "","mobile": "","fax": "","contemail": "","opentime": "每週一至日PM7:00-10:00","logourl": " ","submitter": 35,"status": 1,"date": 1260254615,"hits": 790,"rating": 9.0000,"votes": 1,"comments": 0}, {"lid": 108,"cid": 58,"title": "湖美社區土風舞班","url": "","address": "台南市湖美街六十巷三十一號(西湖社區活動中心)","zip": 700,"city": "中西區","country": "西湖里","lon": 120.181,"lat": 23.0014,"zoom": 16,"phone": "","mobile": "","fax": "","contemail": "","opentime": "每週一至六AM6:30-8:00","logourl": " ","submitter": 35,"status": 1,"date": 1260254587,"hits": 544,"rating": 0.0000,"votes": 0,"comments": 0}, {"lid": 109,"cid": 31,"title": "西湖社區卓球班","url": "","address": "台南市湖美街六十巷三十一號(西湖社區活動中心)","zip": 700,"city": "中西區","country": "西湖里","lon": 120.181,"lat": 23.0013,"zoom": 16,"phone": "","mobile": "","fax": "","contemail": "","opentime": "每週一三五PM8:00-10:00","logourl": " ","submitter": 35,"status": 1,"date": 1260254561,"hits": 724,"rating": 0.0000,"votes": 0,"comments": 0}, {"lid": 110,"cid": 24,"title": "西湖社區現代舞班","url": "","address": "台南市湖美街六十巷三十一號(西湖社區活動中心)","zip": 700,"city": "中西區","country": "西湖里","lon": 120.181,"lat": 23.0013,"zoom": 16,"phone": "","mobile": "","fax": "","contemail": "","opentime": "每週一至六PM7:30-9:00","logourl": " ","submitter": 35,"status": 1,"date": 1260254543,"hits": 629,"rating": 0.0000,"votes": 0,"comments": 0}, {"lid": 111,"cid": 68,"title": "仙草里有氧舞蹈社","url": "","address": "台南市府緯街四巷6號(仙草里活動中心)","zip": 700,"city": "中西區","country": "仙草里","lon": 120.199,"lat": 22.9846,"zoom": 16,"phone": "(06)2137694","mobile": "","fax": "","contemail": "","opentime": "每週一AM7:00-9:00","logourl": " ","submitter": 35,"status": 1,"date": 1260254526,"hits": 785,"rating": 0.0000,"votes": 0,"comments": 0}, {"lid": 112,"cid": 29,"title": "仙草里羽球社","url": "","address": "台南市府緯街四巷6號(仙草里活動中心)","zip": 700,"city": "中西區","country": "仙草里","lon": 120.199,"lat": 22.9845,"zoom": 16,"phone": "(06)2137694","mobile": "","fax": "","contemail": "","opentime": "每週一至五PM7:30-8:00","logourl": " ","submitter": 35,"status": 1,"date": 1260254503,"hits": 1288,"rating": 0.0000,"votes": 0,"comments": 0}, {"lid": 113,"cid": 59,"title": "中正里韻律舞社","url": "","address": "台南市國華街三段5號2樓、3樓(中正里活動中心)","zip": 700,"city": "中西區","country": "中正里","lon": 120.197,"lat": 22.9936,"zoom": 16,"phone": "(06)2273274","mobile": "","fax": "","contemail": "","opentime": "每週一至五PM7:30-8:00","logourl": " ","submitter": 35,"status": 1,"date": 1260254471,"hits": 673,"rating": 0.0000,"votes": 0,"comments": 0}, {"lid": 114,"cid": 58,"title": "西賢里土風舞社","url": "","address": "台南市民權路四段470號(西賢里活動中心)","zip": 700,"city": "中西區","country": "西賢里","lon": 120.175,"lat": 22.9996,"zoom": 16,"phone": "(06)2504254","mobile": "","fax": "","contemail": "","opentime": "每日AM6:00-8:00","logourl": " ","submitter": 35,"status": 1,"date": 1260254462,"hits": 477,"rating": 0.0000,"votes": 0,"comments": 0}, {"lid": 115,"cid": 31,"title": "西賢里桌球社","url": "","address": "台南市民權路四段470號(西賢里活動中心)","zip": 700,"city": "中西區","country": "西賢里","lon": 120.175,"lat": 22.9996,"zoom": 16,"phone": "(06)2504254","mobile": "","fax": "","contemail": "","opentime": "每日AM7:30-8:00","logourl": " ","submitter": 35,"status": 1,"date": 1260254429,"hits": 589,"rating": 0.0000,"votes": 0,"comments": 0}, {"lid": 116,"cid": 135,"title": "西賢里瑜珈社","url": "","address": "台南市民權路四段470號(西賢里活動中心)","zip": 700,"city": "中西區","country": "西賢里","lon": 120.175,"lat": 22.9995,"zoom": 16,"phone": "(06)2504254","mobile": "","fax": "","contemail": "","opentime": "每日AM7:30-8:00","logourl": " ","submitter": 35,"status": 1,"date": 1260254431,"hits": 502,"rating": 0.0000,"votes": 0,"comments": 0}, {"lid": 117,"cid": 135,"title": "民生社區瑜珈社","url": "","address": "台南市中西區保安路201之1號二樓(民生社區活動中心)","zip": 700,"city": "中西區","country": "民生里","lon": 120.195,"lat": 22.9907,"zoom": 17,"phone": "","mobile": 0935071491,"fax": "","contemail": "","opentime": "每日AM6:00-8:00","logourl": " ","submitter": 35,"status": 1,"date": 1260254408,"hits": 483,"rating": 0.0000,"votes": 0,"comments": 0}, {"lid": 118,"cid": 58,"title": "民生社土風舞社","url": "","address": "台南市中西區保安路201之1號二樓(民生社區活動中心)","zip": 700,"city": "中西區","country": "民生里","lon": 120.195,"lat": 22.9908,"zoom": 17,"phone": "","mobile": 0935071491,"fax": "","contemail": "","opentime": "每日PM7:00-9:00","logourl": " ","submitter": 35,"status": 1,"date": 1260254386,"hits": 421,"rating": 0.0000,"votes": 0,"comments": 0}, {"lid": 119,"cid": 58,"title": "萬昌公正里土風舞社","url": "","address": "台南市中西區青年路226巷20號(萬昌公正里活動中心)","zip": 700,"city": "中西區","country": "萬昌公正里","lon": 120.211,"lat": 22.9908,"zoom": 16,"phone": "","mobile": 0932801086,"fax": "","contemail": "","opentime": "每週二五PM7:30-8:00","logourl": " ","submitter": 35,"status": 1,"date": 1260254367,"hits": 564,"rating": 0.0000,"votes": 0,"comments": 0}, {"lid": 120,"cid": 47,"title": "啟智永慶里太極拳社","url": "","address": "台南市永華里忠義路二段4號(啟智永慶里活動中心)","zip": 700,"city": "中西區","country": "啟智永慶里","lon": 120.203,"lat": 22.994,"zoom": 16,"phone": "(06)2286691","mobile": "","fax": "","contemail": "","opentime": "每週二四PM8:00-11:00","logourl": " ","submitter": 35,"status": 1,"date": 1260254342,"hits": 623,"rating": 0.0000,"votes": 0,"comments": 0}, {"lid": 121,"cid": 135,"title": "民權里瑜珈社","url": "","address": "台南市民權路三段135號(民權里活動中心)","zip": 700,"city": "中西區","country": "民權里","lon": 120.196,"lat": 22.9972,"zoom": 16,"phone": "","mobile": 0928013732,"fax": "","contemail": "","opentime": "每週一二五PM7:30-8:00","logourl": " ","submitter": 35,"status": 1,"date": 1260254309,"hits": 542,"rating": 0.0000,"votes": 0,"comments": 0}, {"lid": 122,"cid": 59,"title": "大成里韻律舞班","url": "","address": "台南市西門路一段312巷37號2樓(大成里活動中心)","zip": 702,"city": "南區","country": "大成里","lon": 120.198,"lat": 22.98,"zoom": 16,"phone": "(06)2631946","mobile": "","fax": "","contemail": "","opentime": "大成里活動中心","logourl": " ","submitter": 35,"status": 1,"date": 1260254281,"hits": 508,"rating": 0.0000,"votes": 0,"comments": 0}, {"lid": 123,"cid": 47,"title": "大成里太極拳班","url": "","address": "台南市西門路一段312巷37號2樓(大成里活動中心)","zip": 702,"city": "南區","country": "大成里","lon": 120.198,"lat": 22.9803,"zoom": 16,"phone": "(06)2631946","mobile": "","fax": "","contemail": "","opentime": "洽大成里活動中心
地點:大成里里民廣場","logourl": " ","submitter": 35,"status": 1,"date": 1260254215,"hits": 809,"rating": 0.0000,"votes": 0,"comments": 0}, {"lid": 124,"cid": 135,"title": "大成里瑜珈班","url": "","address": "台南市西門路一段312巷37號2樓(大成里活動中心)","zip": 702,"city": "南區","country": "大成里","lon": 120.198,"lat": 22.9804,"zoom": 16,"phone": "(06)2631946","mobile": "","fax": "","contemail": "","opentime": "洽大成里活動中心","logourl": " ","submitter": 35,"status": 1,"date": 1260254196,"hits": 409,"rating": 0.0000,"votes": 0,"comments": 0}, {"lid": 125,"cid": 63,"title": "十八氣功社","url": "","address": "台南市中西區聖前里南門路34巷邊(大南門公園)","zip": 700,"city": "中西區","country": "勝前里","lon": 120.204,"lat": 22.9863,"zoom": 16,"phone": "(06)2147405","mobile": "","fax": "","contemail": "","opentime": "每日AM6:00-7:00","logourl": " ","submitter": 35,"status": 1,"date": 1260254174,"hits": 659,"rating": 0.0000,"votes": 0,"comments": 0}, {"lid": 126,"cid": 106,"title": "五行健康操社","url": "","address": "台南市中西區聖前里南門路34巷邊(大南門公園)","zip": 700,"city": "中西區","country": "聖前里","lon": 120.204,"lat": 22.9863,"zoom": 16,"phone": "(06)2141701","mobile": "","fax": "","contemail": "","opentime": "每日AM7:00-7:30","logourl": " ","submitter": 35,"status": 1,"date": 1260254152,"hits": 645,"rating": 0.0000,"votes": 0,"comments": 0}, {"lid": 127,"cid": 24,"title": "大南里健康早舞","url": "","address": "台南市南寧街47號之2(大南進學里活動中心)","zip": 700,"city": "中西區","country": "大南進學里","lon": 120.201,"lat": 22.9849,"zoom": 16,"phone": "","mobile": 0972313268,"fax": "","contemail": "","opentime": "每日AM7:00-9:40","logourl": " ","submitter": 35,"status": 1,"date": 1260254107,"hits": 947,"rating": 0.0000,"votes": 0,"comments": 0}, {"lid": 128,"cid": 24,"title": "大南里健康晚舞","url": "","address": "台南市南寧街47號之2(大南進學里活動中心)","zip": 700,"city": "中西區","country": "大南進學里","lon": 120.201,"lat": 22.9848,"zoom": 16,"phone": "","mobile": 0921283835,"fax": "","contemail": "","opentime": "每週日PM7:30-10:00","logourl": " ","submitter": 35,"status": 1,"date": 1260254076,"hits": 972,"rating": 0.0000,"votes": 0,"comments": 0}, {"lid": 129,"cid": 31,"title": "文南桌球聯誼會","url": "","address": "台南市建南路154號(文南社區活動中心4樓)","zip": 702,"city": "南區","country": "文南里","lon": 120.19,"lat": 22.985,"zoom": 16,"phone": "(06)2913850","mobile": "","fax": "","contemail": "","opentime": "洽文南社區活中心","logourl": " ","submitter": 35,"status": 1,"date": 1260254074,"hits": 1388,"rating": 0.0000,"votes": 0,"comments": 0}, {"lid": 130,"cid": 19,"title": "文南社區健身班","url": "","address": "台南市建南路154號(文南社區活動中心3樓)","zip": 702,"city": "南區","country": "文南里","lon": 120.19,"lat": 22.9851,"zoom": 16,"phone": "","mobile": 0920308833,"fax": "","contemail": "","opentime": "恰文南社區活動中心","logourl": " ","submitter": 35,"status": 1,"date": 1260254022,"hits": 1811,"rating": 0.0000,"votes": 0,"comments": 0}, {"lid": 131,"cid": 135,"title": "文南社區瑜珈班","url": "","address": "台南市建南路154號(文南社區活動中心3樓)","zip": 702,"city": "南區","country": "文南里","lon": 120.19,"lat": 22.9851,"zoom": 16,"phone": "","mobile": 0933298076,"fax": "","contemail": "","opentime": "洽文南社區活動中心","logourl": " ","submitter": 35,"status": 1,"date": 1260254024,"hits": 1208,"rating": 0.0000,"votes": 0,"comments": 0}, {"lid": 132,"cid": 24,"title": "文南社區舞蹈班","url": "","address": "台南市建南路154號(文南社區活動中心3樓)","zip": 702,"city": "南區","country": "文南里","lon": 120.19,"lat": 22.9851,"zoom": 16,"phone": "(06)2641313","mobile": "","fax": "","contemail": "","opentime": "洽文南社區活動中心","logourl": " ","submitter": 35,"status": 1,"date": 1260253964,"hits": 554,"rating": 0.0000,"votes": 0,"comments": 0}, {"lid": 133,"cid": 74,"title": "金華社區流行運動舞團","url": "","address": "台南市南區慶南街201號(金華社區活動中心)","zip": 702,"city": "南區","country": "金華里","lon": 120.19,"lat": 22.9804,"zoom": 16,"phone": "","mobile": 0929050603,"fax": "","contemail": "","opentime": "洽金華社區活動中心","logourl": " ","submitter": 35,"status": 1,"date": 1260253933,"hits": 488,"rating": 0.0000,"votes": 0,"comments": 0}, {"lid": 134,"cid": 59,"title": "金華社區韻律舞團","url": "","address": "台南市南區慶南街201號(金華社區活動中心)","zip": 702,"city": "南區","country": "金華里","lon": 120.19,"lat": 22.9804,"zoom": 16,"phone": "","mobile": 0939290803,"fax": "","contemail": "","opentime": "洽金華社區活動中心","logourl": " ","submitter": 35,"status": 1,"date": 1259651467,"hits": 493,"rating": 10.0000,"votes": 1,"comments": 0}, {"lid": 135,"cid": 62,"title": "五行健康操團","url": "","address": "新興國中、金華公園","zip": 702,"city": "南區","country": "","lon": 120.186,"lat": 22.9773,"zoom": 16,"phone": "(06)2640349","mobile": "","fax": "","contemail": "","opentime": "地點:新興國中、金華公園","logourl": " ","submitter": 35,"status": 1,"date": 1259651450,"hits": 690,"rating": 0.0000,"votes": 0,"comments": 0}, {"lid": 136,"cid": 63,"title": "十八式氣功團","url": "","address": "台南市南區健康路二段247巷40號‎","zip": 702,"city": "南區","country": "金華里","lon": 120.19,"lat": 22.9807,"zoom": 16,"phone": "(06)2635568","mobile": "","fax": "","contemail": "","opentime": "金華公園","logourl": " ","submitter": 35,"status": 1,"date": 1259651435,"hits": 636,"rating": 0.0000,"votes": 0,"comments": 0}, {"lid": 137,"cid": 120,"title": "健走隊","url": "","address": "台南市南區新孝路87號","zip": 702,"city": "南區","country": "新興里","lon": 120.186,"lat": 22.9774,"zoom": 16,"phone": "(06)2613515","mobile": "","fax": "","contemail": "","opentime": "地點:新興國中","logourl": " ","submitter": 35,"status": 1,"date": 1259650675,"hits": 646,"rating": 10.0000,"votes": 2,"comments": 0}, {"lid": 138,"cid": 73,"title": "聚光隊","url": "","address": "台南市北區公園路356號","zip": 704,"city": "北區","country": "","lon": 120.212,"lat": 23.0015,"zoom": 16,"phone": "","mobile": 0911391336,"fax": "","contemail": "","opentime": "每週一至日AM6:30-10:00 中山公園內","logourl": " ","submitter": 35,"status": 1,"date": 1259651407,"hits": 638,"rating": 0.0000,"votes": 0,"comments": 0}, {"lid": 139,"cid": 58,"title": "中山土風舞隊","url": "","address": "台南市北區公園路356號","zip": 704,"city": "北區","country": "","lon": 120.212,"lat": 23.0018,"zoom": 16,"phone": "","mobile": 0938047593,"fax": "","contemail": "","opentime": "每天AM7:00-9:00 中山公園內","logourl": " ","submitter": 35,"status": 1,"date": 1259650689,"hits": 674,"rating": 0.0000,"votes": 0,"comments": 0}, {"lid": 140,"cid": 73,"title": "南光羽球隊","url": "","address": "台南市北區公園路356號","zip": 704,"city": "北區","country": "","lon": 120.212,"lat": 23.0021,"zoom": 16,"phone": "","mobile": 0937664162,"fax": "","contemail": "","opentime": "每天AM6:00-9:00 中山公園內","logourl": " ","submitter": 35,"status": 1,"date": 1259650632,"hits": 635,"rating": 0.0000,"votes": 0,"comments": 0}, {"lid": 141,"cid": 73,"title": "公園羽球隊","url": "","address": "台南市北區公園路356號","zip": 704,"city": "北區","country": "","lon": 120.213,"lat": 23.0008,"zoom": 16,"phone": "","mobile": 0921565798,"fax": "","contemail": "","opentime": "每天AM6:30-9:30 中山公園內靠北門路","logourl": " ","submitter": 35,"status": 1,"date": 1259650609,"hits": 672,"rating": 0.0000,"votes": 0,"comments": 0}, {"lid": 142,"cid": 29,"title": "關聖羽球隊","url": "","address": "臺南市裕孝路118號(關聖里活動中心4樓)","zip": 701,"city": "東區","country": "關聖里","lon": 120.243,"lat": 22.9843,"zoom": 16,"phone": "","mobile": 0920884596,"fax": "","contemail": "","opentime": "每週一至五AM10:00-12:00","logourl": " ","submitter": 35,"status": 1,"date": 1259650565,"hits": 1150,"rating": 0.0000,"votes": 0,"comments": 0}, {"lid": 143,"cid": 59,"title": "關聖社區媽媽運動舞","url": "","address": "臺南市裕孝路118號(關聖里活動中心1樓)","zip": 701,"city": "東區","country": "關聖里","lon": 120.244,"lat": 22.9841,"zoom": 16,"phone": "","mobile": 0939276469,"fax": "","contemail": "","opentime": "每週一至五AM8:00-9:30","logourl": " ","submitter": 35,"status": 1,"date": 1259650580,"hits": 932,"rating": 0.0000,"votes": 0,"comments": 0}, {"lid": 144,"cid": 135,"title": "全方位伸展瑜珈","url": "","address": "臺南市裕孝路118號(關聖里活動中心3樓)","zip": 701,"city": "東區","country": "關聖里","lon": 120.243,"lat": 22.9843,"zoom": 16,"phone": "","mobile": 0928716479,"fax": "","contemail": "","opentime": "每週一三五AM9:50-10:00
每週一三PM7:30-9:00","logourl": " ","submitter": 35,"status": 1,"date": 1260253913,"hits": 760,"rating": 0.0000,"votes": 0,"comments": 0}, {"lid": 145,"cid": 29,"title": "藍天羽球隊","url": "","address": "台南市安南區北安路二段538號之2","zip": 709,"city": "安南區","country": "","lon": 120.203,"lat": 23.0373,"zoom": 16,"phone": "","mobile": 0912743431,"fax": "","contemail": "","opentime": "週一至六AM7:00-10:00","logourl": " ","submitter": 35,"status": 1,"date": 1260253893,"hits": 581,"rating": 0.0000,"votes": 0,"comments": 0}, {"lid": 146,"cid": 29,"title": "翔友羽球隊","url": "","address": "台南市安南區北安路二段538號之2","zip": 709,"city": "安南區","country": "","lon": 120.203,"lat": 23.0371,"zoom": 16,"phone": "","mobile": 0958000013,"fax": "","contemail": "","opentime": "週一至六PM5:00-11:00
","logourl": " ","submitter": 35,"status": 1,"date": 1260253863,"hits": 1268,"rating": 0.0000,"votes": 0,"comments": 0}, {"lid": 147,"cid": 74,"title": "蔡秀桃健康舞蹈","url": "","address": "台南市勝利路10號‎ ","zip": 701,"city": "東區","country": "","lon": 120.218,"lat": 22.9886,"zoom": 16,"phone": "","mobile": 0952312079,"fax": "","contemail": "","opentime": "勝利國小內週一至六AM6:10-7:10","logourl": " ","submitter": 35,"status": 1,"date": 1260253826,"hits": 533,"rating": 0.0000,"votes": 0,"comments": 0}, {"lid": 148,"cid": 53,"title": "鳳凰水上救生協會","url": "","address": "台南市北區文賢路1122巷1號","zip": 704,"city": "北區","country": "","lon": 120.194,"lat": 23.0165,"zoom": 16,"phone": "","mobile": 0919756988,"fax": "","contemail": "","opentime": "每日AM6:00-9:00","logourl": " ","submitter": 35,"status": 1,"date": 1260253845,"hits": 1073,"rating": 7.0000,"votes": 2,"comments": 0}, {"lid": 149,"cid": 63,"title": "台南市體育會太極氣功十八式","url": "","address": "台南市前鋒路100號‎ ","zip": 701,"city": "東區","country": "","lon": 120.213,"lat": 22.9929,"zoom": 16,"phone": "","mobile": 0918953983,"fax": "","contemail": "","opentime": "博愛國小內每周一至五PM4:15-5:30","logourl": " ","submitter": 35,"status": 1,"date": 1260253768,"hits": 1083,"rating": 0.0000,"votes": 0,"comments": 0}, {"lid": 150,"cid": 29,"title": "南虎羽球隊","url": "","address": "台南市府平路386巷35號","zip": 708,"city": "安平區","country": "","lon": 120.167,"lat": 22.9883,"zoom": 16,"phone": "","mobile": 0933340300,"fax": "","contemail": "","opentime": "超強羽球館 每週三五PM9:00-10:00","logourl": " ","submitter": 35,"status": 1,"date": 1260253738,"hits": 1144,"rating": 0.0000,"votes": 0,"comments": 0}, {"lid": 151,"cid": 29,"title": "晨暉羽球隊","url": "","address": "台南市府平路386巷35號","zip": 708,"city": "安平區","country": "","lon": 120.167,"lat": 22.9883,"zoom": 16,"phone": "","mobile": 0972303392,"fax": "","contemail": "","opentime": "超強羽球館 每週六日AM7:00-9:00","logourl": " ","submitter": 35,"status": 1,"date": 1260253712,"hits": 1455,"rating": 0.0000,"votes": 0,"comments": 0}, {"lid": 152,"cid": 65,"title": "健康早舞","url": "","address": "台南市體育路21巷口對面","zip": 702,"city": "南區","country": "","lon": 120.207,"lat": 22.9808,"zoom": 16,"phone": "","mobile": 0933615807,"fax": "","contemail": "","opentime": "每日AM8:30-10:30","logourl": " ","submitter": 35,"status": 1,"date": 1260253679,"hits": 752,"rating": 0.0000,"votes": 0,"comments": 0}, {"lid": 153,"cid": 29,"title": "健友羽球隊","url": "","address": "台南市 體育路10號之9","zip": 702,"city": "南區","country": "竹溪里","lon": 120.209,"lat": 22.9761,"zoom": 16,"phone": "","mobile": 0933355299,"fax": "","contemail": "","opentime": "市立羽球館 每週三六PM9:00-11:00","logourl": " ","submitter": 35,"status": 1,"date": 1260253669,"hits": 1091,"rating": 0.0000,"votes": 0,"comments": 0}, {"lid": 154,"cid": 76,"title": "布袋里國標舞隊","url": "","address": "台南市長和路四段231巷60弄41號","zip": 709,"city": "安南區","country": "布袋里","lon": 120.208,"lat": 23.0626,"zoom": 16,"phone": "","mobile": 0929487925,"fax": "","contemail": "","opentime": "洽布袋里活動中心","logourl": " ","submitter": 35,"status": 1,"date": 1260253620,"hits": 526,"rating": 0.0000,"votes": 0,"comments": 0}, {"lid": 155,"cid": 75,"title": "頂安社區氣功隊","url": "","address": "台南市長溪路一段407巷12弄40號前","zip": 709,"city": "安南區","country": "","lon": 120.204,"lat": 23.0401,"zoom": 16,"phone": "(06)2552121","mobile": "","fax": "","contemail": "","opentime": "每週一至六AM6:00-7:00","logourl": " ","submitter": 35,"status": 1,"date": 1260253572,"hits": 484,"rating": 0.0000,"votes": 0,"comments": 0}, {"lid": 156,"cid": 68,"title": "頂安社區有氧舞蹈隊","url": "","address": "台南市怡安路一段385巷42號(頂安社區活動中心)","zip": 709,"city": "安南區","country": "頂安里","lon": 120.207,"lat": 23.0417,"zoom": 16,"phone": "(06)2565381","mobile": "","fax": "","contemail": "","opentime": "每週一三四PM7:30-9:00","logourl": " ","submitter": 35,"status": 1,"date": 1260253546,"hits": 692,"rating": 0.0000,"votes": 0,"comments": 0}, {"lid": 157,"cid": 24,"title": "溪仔墘社區舞蹈隊","url": "","address": "台南市海佃路一段334號","zip": 709,"city": "安南區","country": "","lon": 120.191,"lat": 23.027,"zoom": 16,"phone": "","mobile": 0932827215,"fax": "","contemail": "","opentime": "每週三AM10:30-PM1:00","logourl": " ","submitter": 35,"status": 1,"date": 1260253520,"hits": 500,"rating": 0.0000,"votes": 0,"comments": 0}, {"lid": 158,"cid": 106,"title": "溪仔墘社區健康活力體操隊","url": "","address": "台南市海佃路一段334號","zip": 709,"city": "安南區","country": "","lon": 120.191,"lat": 23.027,"zoom": 16,"phone": "","mobile": 0953539282,"fax": "","contemail": "","opentime": "每週三AM10:30-PM1:00","logourl": " ","submitter": 35,"status": 1,"date": 1260253479,"hits": 685,"rating": 0.0000,"votes": 0,"comments": 0}, {"lid": 159,"cid": 58,"title": "民生土風舞社","url": "","address": "台南市南華街63之2號","zip": 700,"city": "中西區","country": "","lon": 120.191,"lat": 22.9904,"zoom": 16,"phone": "","mobile": "","fax": "","contemail": "","opentime": "","logourl": " ","submitter": 35,"status": 1,"date": 1259720730,"hits": 455,"rating": 0.0000,"votes": 0,"comments": 0}, {"lid": 160,"cid": 135,"title": "元安瑜珈研習社","url": "","address": "台南市永華路36號4樓","zip": 700,"city": "中西區","country": "","lon": 120.196,"lat": 22.9876,"zoom": 16,"phone": "","mobile": "","fax": "","contemail": "","opentime": "","logourl": " ","submitter": 35,"status": 1,"date": 1260253454,"hits": 575,"rating": 0.0000,"votes": 0,"comments": 0}, {"lid": 161,"cid": 47,"title": "元氣太極班","url": "","address": "台南市湖美街60巷31號","zip": 700,"city": "中西區","country": "","lon": 120.181,"lat": 23.0013,"zoom": 16,"phone": "","mobile": 0915659128,"fax": "","contemail": "","opentime": "","logourl": " ","submitter": 35,"status": 1,"date": 1259720763,"hits": 631,"rating": 10.0000,"votes": 1,"comments": 0}, {"lid": 162,"cid": 135,"title": "西湖能量瑜珈班","url": "","address": "台南市湖美街60巷31號","zip": 700,"city": "中西區","country": "","lon": 120.181,"lat": 23.0013,"zoom": 16,"phone": "","mobile": 0921513676,"fax": "","contemail": "","opentime": "","logourl": " ","submitter": 35,"status": 1,"date": 1259720747,"hits": 504,"rating": 0.0000,"votes": 0,"comments": 0}, {"lid": 163,"cid": 135,"title": "民生圍棋文化協會","url": "","address": "台南市保安路201之1號3樓","zip": 700,"city": "中西區","country": "","lon": 120.195,"lat": 22.9908,"zoom": 16,"phone": "","mobile": "","fax": "","contemail": "","opentime": "","logourl": " ","submitter": 35,"status": 1,"date": 1260253434,"hits": 502,"rating": 0.0000,"votes": 0,"comments": 0}, {"lid": 164,"cid": 94,"title": "民生圍棋文化協會","url": "","address": "台南市保安路201之1號3樓","zip": 700,"city": "中西區","country": "","lon": 120.195,"lat": 22.9908,"zoom": 16,"phone": "","mobile": "","fax": "","contemail": "","opentime": "","logourl": " ","submitter": 35,"status": 1,"date": 1260253411,"hits": 769,"rating": 0.0000,"votes": 0,"comments": 0}, {"lid": 165,"cid": 58,"title": "西湖土風舞社","url": "","address": "台南市湖美街60像31號","zip": 700,"city": "中西區","country": "","lon": 120.181,"lat": 23.0013,"zoom": 16,"phone": "","mobile": 0919067739,"fax": "","contemail": "","opentime": "","logourl": " ","submitter": 35,"status": 1,"date": 1260253378,"hits": 401,"rating": 0.0000,"votes": 0,"comments": 0}, {"lid": 166,"cid": 74,"title": "西湖單人運動舞蹈","url": "","address": "台南市湖美街60像31號","zip": 700,"city": "中西區","country": "","lon": 120.181,"lat": 23.0013,"zoom": 16,"phone": "","mobile": 0918107756,"fax": "","contemail": "","opentime": "","logourl": " ","submitter": 35,"status": 1,"date": 1260253335,"hits": 436,"rating": 0.0000,"votes": 0,"comments": 0}, {"lid": 167,"cid": 31,"title": "西湖桌球隊","url": "","address": "台南市湖美街60像31號","zip": 700,"city": "中西區","country": "","lon": 120.181,"lat": 23.0013,"zoom": 16,"phone": "","mobile": 0918107756,"fax": "","contemail": "","opentime": "","logourl": " ","submitter": 35,"status": 1,"date": 1260253306,"hits": 498,"rating": 0.0000,"votes": 0,"comments": 0}, {"lid": 168,"cid": 78,"title": "海東里登山隊","url": "","address": "海佃路與安吉路口","zip": 709,"city": "安南區","country": "海東里","lon": 120.188,"lat": 23.0423,"zoom": 16,"phone": "(06)2468428","mobile": "","fax": "","contemail": "","opentime": "","logourl": " ","submitter": 35,"status": 1,"date": 1260253277,"hits": 1003,"rating": 0.0000,"votes": 0,"comments": 0}, {"lid": 169,"cid": 58,"title": "海東里土風舞隊","url": "","address": "台南市海佃路二段509巷65號","zip": 709,"city": "安南區","country": "海東里","lon": 120.185,"lat": 23.0414,"zoom": 16,"phone": "(06)2557321","mobile": "","fax": "","contemail": "","opentime": "每週一至六AM7:30-9:00","logourl": " ","submitter": 35,"status": 1,"date": 1260253253,"hits": 479,"rating": 0.0000,"votes": 0,"comments": 0}, {"lid": 170,"cid": 47,"title": "永太極拳隊","url": "","address": "台南市南華街63之2號","zip": 700,"city": "中西區","country": "","lon": 120.191,"lat": 22.9904,"zoom": 16,"phone": "","mobile": "","fax": "","contemail": "","opentime": "","logourl": " ","submitter": 35,"status": 1,"date": 1260253210,"hits": 439,"rating": 0.0000,"votes": 0,"comments": 0}, {"lid": 171,"cid": 58,"title": "永華土風舞隊","url": "","address": "台南市忠義路二段4號","zip": 700,"city": "中西區","country": "","lon": 120.203,"lat": 22.9946,"zoom": 16,"phone": "","mobile": "","fax": "","contemail": "","opentime": "","logourl": " ","submitter": 35,"status": 1,"date": 1260253210,"hits": 427,"rating": 0.0000,"votes": 0,"comments": 0}, {"lid": 172,"cid": 24,"title": "永華土風舞隊","url": "","address": "台南市忠義路二段4號","zip": 700,"city": "中西區","country": "","lon": 120.203,"lat": 22.9946,"zoom": 16,"phone": "","mobile": "","fax": "","contemail": "","opentime": "","logourl": " ","submitter": 35,"status": 1,"date": 1260253139,"hits": 453,"rating": 0.0000,"votes": 0,"comments": 0}, {"lid": 173,"cid": 81,"title": "黃金保齡球隊","url": "","address": "台南市凱旋路12號","zip": 701,"city": "東區","country": "","lon": 120.233,"lat": 22.9931,"zoom": 16,"phone": "","mobile": 0988668845,"fax": "","contemail": "","opentime": "晚上到了就開始","logourl": " ","submitter": 35,"status": 1,"date": 1260253117,"hits": 869,"rating": 0.0000,"votes": 0,"comments": 0}, {"lid": 174,"cid": 87,"title": "海店里歌友會卡拉OK","url": "","address": "台南市安南區郡安路六段111巷36弄","zip": 709,"city": "安南區","country": "海佃國安里","lon": 120.184,"lat": 23.0268,"zoom": 16,"phone": "(06)2586805","mobile": "","fax": "","contemail": "","opentime": "PM7:00-10:00","logourl": " ","submitter": 35,"status": 1,"date": 1260253067,"hits": 1140,"rating": 0.0000,"votes": 0,"comments": 0}, {"lid": 175,"cid": 68,"title": "綜合塑身有氧班","url": "","address": "台南市長榮路五段452巷19號","zip": 704,"city": "北區","country": "","lon": 120.214,"lat": 23.0144,"zoom": 16,"phone": "(06)2519670轉107","mobile": "","fax": "","contemail": "","opentime": "每週二五AM8:00-9:00
","logourl": " ","submitter": 35,"status": 1,"date": 1260253043,"hits": 572,"rating": 0.0000,"votes": 0,"comments": 0}, {"lid": 176,"cid": 24,"title": "流行熱舞班","url": "","address": "台南市長榮路五段452巷19號","zip": 704,"city": "北區","country": "","lon": 120.214,"lat": 23.0143,"zoom": 16,"phone": "(06)2519670轉107","mobile": "","fax": "","contemail": "","opentime": "每週三五PM6:30-7:30
","logourl": " ","submitter": 35,"status": 1,"date": 1260253003,"hits": 641,"rating": 0.0000,"votes": 0,"comments": 0}, {"lid": 177,"cid": 68,"title": "活力有氧班、拉丁動感有氧班","url": "","address": "台南市長榮路五段452巷19號","zip": 704,"city": "北區","country": "","lon": 120.214,"lat": 23.0143,"zoom": 16,"phone": "(06)2519670轉107","mobile": "","fax": "","contemail": "","opentime": "每週一二三PM6:30-8:30","logourl": " ","submitter": 35,"status": 1,"date": 1260252972,"hits": 564,"rating": 0.0000,"votes": 0,"comments": 0}, {"lid": 178,"cid": 24,"title": "創作流行舞班、韻律動動舞班、國際舞班","url": "","address": "台南市長榮路五段452巷19號","zip": 704,"city": "北區","country": "","lon": 120.214,"lat": 23.0143,"zoom": 16,"phone": "(06)2519670轉107","mobile": "","fax": "","contemail": "","opentime": "每週一二四五AM9:00-12:00
                        PM7:00-9:00","logourl": " ","submitter": 35,"status": 1,"date": 1260252935,"hits": 954,"rating": 0.0000,"votes": 0,"comments": 0}, {"lid": 179,"cid": 135,"title": "瑜珈養身、健身操班","url": "","address": "台南市長榮路五段452巷19號","zip": 704,"city": "北區","country": "","lon": 120.214,"lat": 23.0143,"zoom": 16,"phone": "(06)2519670轉107","mobile": "","fax": "","contemail": "","opentime": "每週一至六AM6:30-11:30
                   PM6:00-9:50","logourl": " ","submitter": 35,"status": 1,"date": 1260252887,"hits": 431,"rating": 0.0000,"votes": 0,"comments": 0}, {"lid": 180,"cid": 47,"title": "養生太極拳班","url": "","address": "台南市長榮路五段452巷19號","zip": 704,"city": "北區","country": "","lon": 120.214,"lat": 23.0143,"zoom": 16,"phone": "(06)2519670轉107","mobile": "","fax": "","contemail": "","opentime": "每週二PM6:30-8:30
每週四AM9:20-10:50","logourl": " ","submitter": 35,"status": 1,"date": 1260252852,"hits": 537,"rating": 0.0000,"votes": 0,"comments": 0}, {"lid": 181,"cid": 134,"title": "宋江陣團","url": "","address": "台南市海中街101 巷10 號","zip": 709,"city": "安南區","country": "","lon": 120.184,"lat": 23.0405,"zoom": 16,"phone": "","mobile": 0933615262,"fax": "","contemail": "","opentime": "每週五六晚上","logourl": " ","submitter": 35,"status": 1,"date": 1260252769,"hits": 1014,"rating": 0.0000,"votes": 0,"comments": 0}, {"lid": 182,"cid": 135,"title": "瑜珈班","url": "","address": "台南市海中街101 巷10 號","zip": 709,"city": "安南區","country": "","lon": 120.184,"lat": 23.0404,"zoom": 16,"phone": "(06)2561020","mobile": "","fax": "","contemail": "","opentime": "每週二四晚上","logourl": " ","submitter": 35,"status": 1,"date": 1260253167,"hits": 424,"rating": 0.0000,"votes": 0,"comments": 0}, {"lid": 183,"cid": 134,"title": "二胡班","url": "","address": "台南市海中街101 巷10 號","zip": 709,"city": "安南區","country": "","lon": 120.184,"lat": 23.0405,"zoom": 16,"phone": "","mobile": 0933615262,"fax": "","contemail": "","opentime": "每週一至六晚上","logourl": " ","submitter": 35,"status": 1,"date": 1260252641,"hits": 958,"rating": 0.0000,"votes": 0,"comments": 0}, {"lid": 184,"cid": 63,"title": "光賢里十八式氣功","url": "","address": "台南市武聖路151巷50弄2號","zip": 700,"city": "中西區","country": "光賢里","lon": 120.19,"lat": 23.005,"zoom": 16,"phone": "(06)2500100","mobile": "","fax": "","contemail": "","opentime": "每天上午","logourl": " ","submitter": 35,"status": 1,"date": 1260252617,"hits": 675,"rating": 0.0000,"votes": 0,"comments": 0}, {"lid": 185,"cid": 73,"title": "光賢里羽球隊","url": "","address": "台南市武聖路151巷50弄2號","zip": 700,"city": "中西區","country": "光賢里","lon": 120.19,"lat": 23.0051,"zoom": 16,"phone": "(06)2500100","mobile": "","fax": "","contemail": "","opentime": "每天上午晚上皆有","logourl": " ","submitter": 35,"status": 1,"date": 1260252556,"hits": 666,"rating": 0.0000,"votes": 0,"comments": 0}, {"lid": 186,"cid": 135,"title": "健康瑜珈班","url": "","address": "台南市南區體育路10號","zip": 702,"city": "南區","country": "","lon": 120.206,"lat": 22.9781,"zoom": 16,"phone": "","mobile": 0916536617,"fax": "","contemail": "","opentime": "每週一至五AM7:00-9:00
                    PM2:00-4:00","logourl": " ","submitter": 35,"status": 1,"date": 1260252527,"hits": 626,"rating": 0.0000,"votes": 0,"comments": 0}, {"lid": 187,"cid": 59,"title": "市民學苑韻律舞班","url": "","address": "台南市公園南路406號","zip": 704,"city": "北區","country": "和順里","lon": 120.201,"lat": 23.004,"zoom": 16,"phone": "(06)2253155","mobile": 0929081062,"fax": "","contemail": "","opentime": "每週一二AM7:00-8:00","logourl": " ","submitter": 35,"status": 1,"date": 1260252488,"hits": 498,"rating": 0.0000,"votes": 0,"comments": 0}, {"lid": 188,"cid": 135,"title": "哈達瑜珈班","url": "","address": "台南市健康路一段113巷51弄1號","zip": 702,"city": "南區","country": "竹溪里","lon": 120.21,"lat": 22.9793,"zoom": 16,"phone": "","mobile": 0929123181,"fax": "","contemail": "","opentime": "每週二PM7:30-9:30","logourl": " ","submitter": 35,"status": 1,"date": 1260252455,"hits": 1263,"rating": 0.0000,"votes": 0,"comments": 0}, {"lid": 189,"cid": 74,"title": "安南區安慶里健康運動舞班","url": "","address": "台南市長溪路一段168巷133號","zip": 709,"city": "安南區","country": "安慶里","lon": 120.21,"lat": 23.0386,"zoom": 16,"phone": "","mobile": 0922365143,"fax": "","contemail": "","opentime": "每週一四AM8:00-9:00","logourl": " ","submitter": 35,"status": 1,"date": 1260252653,"hits": 685,"rating": 0.0000,"votes": 0,"comments": 0}, {"lid": 190,"cid": 135,"title": "安南區安慶社區發展協會體能活力瑜珈班(市民學苑)","url": "","address": "台南市長溪路一段168巷133號","zip": 709,"city": "安南區","country": "安慶里","lon": 120.21,"lat": 23.0386,"zoom": 16,"phone": "(06)2563450","mobile": 0922365143,"fax": "","contemail": "","opentime": "每週三六PM8:00-9:00","logourl": " ","submitter": 35,"status": 1,"date": 1260252358,"hits": 856,"rating": 0.0000,"votes": 0,"comments": 0}, {"lid": 191,"cid": 106,"title": "安南區安慶社區發展協會五行健康操(市民學苑)","url": "","address": "台南市長溪路一段168巷133號","zip": 709,"city": "安南區","country": "安慶里","lon": 120.21,"lat": 23.0387,"zoom": 16,"phone": "(06)2563450","mobile": 0922365143,"fax": "","contemail": "","opentime": "每週二四PM8:00-9:00","logourl": " ","submitter": 35,"status": 1,"date": 1260252314,"hits": 975,"rating": 0.0000,"votes": 0,"comments": 0}, {"lid": 192,"cid": 74,"title": "運動舞蹈班","url": "","address": "台南市新順里慶安路220巷5號3樓","zip": 709,"city": "安南區","country": "新順里","lon": 120.214,"lat": 23.0436,"zoom": 16,"phone": "","mobile": 0932984779,"fax": "","contemail": "","opentime": "每週一AM8:00-10:00","logourl": " ","submitter": 35,"status": 1,"date": 1260252313,"hits": 440,"rating": 0.0000,"votes": 0,"comments": 0}, {"lid": 193,"cid": 67,"title": "公園肚皮舞班","url": "","address": "台南市公園南路39號5樓","zip": 704,"city": "北區","country": "公園里","lon": 120.212,"lat": 23.0002,"zoom": 16,"phone": "(06)2206915","mobile": "","fax": "","contemail": "","opentime": "每週一PM6:30-8:30","logourl": " ","submitter": 35,"status": 1,"date": 1260252243,"hits": 607,"rating": 0.0000,"votes": 0,"comments": 0}, {"lid": 194,"cid": 135,"title": "大恩基礎生活瑜珈班","url": "","address": "台南市大同路二段750巷186號","zip": 702,"city": "南區","country": "大恩里","lon": 120.213,"lat": 22.9661,"zoom": 16,"phone": "(06)2909200","mobile": "","fax": "","contemail": "","opentime": "每週六AM8:00-10:00","logourl": " ","submitter": 35,"status": 1,"date": 1260252263,"hits": 425,"rating": 0.0000,"votes": 0,"comments": 0}, {"lid": 195,"cid": 74,"title": "大恩基礎運動流行律動熱舞","url": "","address": "台南市大同路二段750巷186號","zip": 702,"city": "南區","country": "大恩里","lon": 120.213,"lat": 22.9662,"zoom": 16,"phone": "(06)2909200","mobile": "","fax": "","contemail": "","opentime": "每週二五PM7:30-8:30","logourl": " ","submitter": 35,"status": 1,"date": 1260252184,"hits": 611,"rating": 0.0000,"votes": 0,"comments": 0}, {"lid": 196,"cid": 135,"title": "養生瑜珈","url": "","address": "台南市安中路6段507巷25號","zip": 709,"city": "安南區","country": "城中里","lon": 120.131,"lat": 23.0615,"zoom": 16,"phone": "","mobile": "","fax": "","contemail": "","opentime": "城中社區活動中心","logourl": " ","submitter": 35,"status": 1,"date": 1260252131,"hits": 435,"rating": 0.0000,"votes": 0,"comments": 0}, {"lid": 197,"cid": 74,"title": "晚班運動舞","url": "","address": "台南市金華路二段33巷81號","zip": 702,"city": "南區","country": "國宅里","lon": 120.188,"lat": 22.977,"zoom": 16,"phone": "","mobile": "","fax": "","contemail": "","opentime": "國宅社區活動中心","logourl": " ","submitter": 35,"status": 1,"date": 1260252099,"hits": 394,"rating": 0.0000,"votes": 0,"comments": 0}, {"lid": 198,"cid": 74,"title": "早班運動舞","url": "","address": "台南市金華路二段33巷81號","zip": 702,"city": "南區","country": "國宅里","lon": 120.189,"lat": 22.977,"zoom": 16,"phone": "","mobile": "","fax": "","contemail": "","opentime": "國宅社區活動中心","logourl": " ","submitter": 35,"status": 1,"date": 1260252063,"hits": 437,"rating": 0.0000,"votes": 0,"comments": 0}, {"lid": 199,"cid": 135,"title": "國宅瑜珈班","url": "","address": "台南市金華路二段33巷81號","zip": 702,"city": "南區","country": "國宅里","lon": 120.189,"lat": 22.9771,"zoom": 16,"phone": "(06)2631259","mobile": "","fax": "","contemail": "","opentime": "每週一三AM7:00-8:30","logourl": " ","submitter": 35,"status": 1,"date": 1260252024,"hits": 434,"rating": 0.0000,"votes": 0,"comments": 0}, {"lid": 200,"cid": 36,"title": "國宅槌球、賓果投擲練習","url": "","address": "台南市金華路二段33巷81號","zip": 702,"city": "南區","country": "國宅里","lon": 120.188,"lat": 22.9771,"zoom": 16,"phone": "","mobile": "","fax": "","contemail": "","opentime": "國宅社區活動中心","logourl": " ","submitter": 35,"status": 1,"date": 1260252033,"hits": 709,"rating": 0.0000,"votes": 0,"comments": 0}, {"lid": 201,"cid": 76,"title": "布袋國標舞","url": "","address": "台南市長和路四段231巷60弄41號","zip": 709,"city": "安南區","country": "布袋里","lon": 120.208,"lat": 23.0631,"zoom": 16,"phone": "","mobile": "","fax": "","contemail": "","opentime": "布袋里活動中心","logourl": " ","submitter": 35,"status": 1,"date": 1260251946,"hits": 627,"rating": 0.0000,"votes": 0,"comments": 0}, {"lid": 202,"cid": 135,"title": "大成瑜珈班","url": "","address": "台南市西門路一段312巷37號2樓","zip": 702,"city": "南區","country": "大成里","lon": 120.198,"lat": 22.9799,"zoom": 16,"phone": "(06)2631946","mobile": "","fax": "","contemail": "","opentime": "每週一PM7:00-9:00","logourl": " ","submitter": 35,"status": 1,"date": 1260251905,"hits": 492,"rating": 0.0000,"votes": 0,"comments": 0}, {"lid": 203,"cid": 60,"title": "國宅元極舞","url": "","address": "台南市金華路二段33巷81號","zip": 702,"city": "南區","country": "國宅里","lon": 120.189,"lat": 22.9771,"zoom": 16,"phone": "","mobile": "","fax": "","contemail": "","opentime": "國宅社區活動中心","logourl": " ","submitter": 35,"status": 1,"date": 1260251849,"hits": 495,"rating": 0.0000,"votes": 0,"comments": 0}, {"lid": 204,"cid": 48,"title": "國宅跆拳道","url": "","address": "台南市金華路二段33巷81號","zip": 702,"city": "南區","country": "國宅里","lon": 120.188,"lat": 22.977,"zoom": 16,"phone": "","mobile": "","fax": "","contemail": "","opentime": "國宅社區活動中心","logourl": " ","submitter": 35,"status": 1,"date": 1260251748,"hits": 724,"rating": 1.0000,"votes": 1,"comments": 0}, {"lid": 205,"cid": 135,"title": "金華基礎瑜珈班","url": "","address": "台南市慶南街201號","zip": 702,"city": "南區","country": "金華里","lon": 120.19,"lat": 22.9805,"zoom": 16,"phone": "","mobile": "","fax": "","contemail": "","opentime": "金華社區活動中心","logourl": " ","submitter": 35,"status": 1,"date": 1260251707,"hits": 410,"rating": 0.0000,"votes": 0,"comments": 0}, {"lid": 206,"cid": 67,"title": "正覺肚皮舞","url": "","address": "台南市公園路769巷20弄5號","zip": 704,"city": "北區","country": "正覺里","lon": 120.215,"lat": 23.0188,"zoom": 16,"phone": "","mobile": "","fax": "","contemail": "","opentime": "正覺社區活動中心","logourl": " ","submitter": 35,"status": 1,"date": 1260251954,"hits": 597,"rating": 0.0000,"votes": 0,"comments": 0}, {"lid": 207,"cid": 65,"title": "金華社交舞班","url": "","address": "台南市慶南街201號","zip": 702,"city": "南區","country": "金華里","lon": 120.19,"lat": 22.9804,"zoom": 16,"phone": "","mobile": "","fax": "","contemail": "","opentime": "金華社區活動中心","logourl": " ","submitter": 35,"status": 1,"date": 1260251566,"hits": 521,"rating": 0.0000,"votes": 0,"comments": 0}, {"lid": 208,"cid": 65,"title": "中頭社區社交舞班","url": "","address": "台南市保安路201之1號1樓","zip": 700,"city": "中西區","country": "民生里","lon": 120.195,"lat": 22.9907,"zoom": 16,"phone": "","mobile": "","fax": "","contemail": "","opentime": "中頭社區活動中心","logourl": " ","submitter": 35,"status": 1,"date": 1260251525,"hits": 724,"rating": 0.0000,"votes": 0,"comments": 0}, {"lid": 209,"cid": 58,"title": "中頭社區土風舞班","url": "","address": "台南市保安路201之1號1樓","zip": 700,"city": "中西區","country": "民生里","lon": 120.194,"lat": 22.9904,"zoom": 16,"phone": "","mobile": "","fax": "","contemail": "","opentime": "中頭社區活動中心","logourl": " ","submitter": 35,"status": 1,"date": 1260251455,"hits": 497,"rating": 0.0000,"votes": 0,"comments": 0}, {"lid": 210,"cid": 135,"title": "原佃里瑜珈班","url": "","address": "台南市本原街一段167巷36弄46號","zip": 709,"city": "安南區","country": "原佃里","lon": 120.196,"lat": 23.0495,"zoom": 16,"phone": "","mobile": "","fax": "","contemail": "","opentime": "原佃里活動中心","logourl": " ","submitter": 35,"status": 1,"date": 1260251427,"hits": 464,"rating": 0.0000,"votes": 0,"comments": 0}, {"lid": 211,"cid": 68,"title": "原佃有氧舞蹈班","url": "","address": "台南市本原街一段167巷36弄46號","zip": 709,"city": "安南區","country": "原佃里","lon": 120.196,"lat": 23.0496,"zoom": 16,"phone": "(06)2560439","mobile": 0932985930,"fax": "","contemail": "","opentime": "每週四PM7:30-9:30","logourl": " ","submitter": 35,"status": 1,"date": 1260251357,"hits": 739,"rating": 0.0000,"votes": 0,"comments": 0}, {"lid": 212,"cid": 47,"title": "太極拳班","url": "","address": "台南市金華路二段236號","zip": 702,"city": "南區","country": "在興里","lon": 120.192,"lat": 22.981,"zoom": 16,"phone": "(06)2293172","mobile": "","fax": "","contemail": "","opentime": "每週二PM7:30-9:30","logourl": " ","submitter": 35,"status": 1,"date": 1260251316,"hits": 477,"rating": 0.0000,"votes": 0,"comments": 0}, {"lid": 213,"cid": 135,"title": "新順里瑜珈班","url": "","address": "台南市慶安路220巷5號","zip": 709,"city": "安南區","country": "新順里","lon": 120.212,"lat": 23.0437,"zoom": 16,"phone": "","mobile": "","fax": "","contemail": "","opentime": "新順里活動中心","logourl": " ","submitter": 35,"status": 1,"date": 1260251010,"hits": 693,"rating": 0.0000,"votes": 0,"comments": 0}, {"lid": 214,"cid": 62,"title": "新順里健康舞研習","url": "","address": "台南市慶安路220巷5號","zip": 709,"city": "安南區","country": "新順里","lon": 120.212,"lat": 23.0437,"zoom": 16,"phone": "","mobile": "","fax": "","contemail": "","opentime": "新順里活動中心","logourl": " ","submitter": 35,"status": 1,"date": 1260250978,"hits": 722,"rating": 0.0000,"votes": 0,"comments": 0}, {"lid": 215,"cid": 76,"title": "再興里國標舞","url": "","address": "台南市金華路二段236號","zip": 702,"city": "南區","country": "再興里","lon": 120.192,"lat": 22.981,"zoom": 16,"phone": "","mobile": "","fax": "","contemail": "","opentime": "再興里活動中心","logourl": " ","submitter": 35,"status": 1,"date": 1260244344,"hits": 762,"rating": 0.0000,"votes": 0,"comments": 0}, {"lid": 216,"cid": 24,"title": "原佃里舞蹈班","url": "","address": "台南市本原街一段167巷36弄46號","zip": 709,"city": "安南區","country": "原佃里","lon": 120.195,"lat": 23.0495,"zoom": 16,"phone": "","mobile": "","fax": "","contemail": "","opentime": "原佃里活動中心","logourl": " ","submitter": 35,"status": 1,"date": 1260244306,"hits": 961,"rating": 0.0000,"votes": 0,"comments": 0}, {"lid": 217,"cid": 31,"title": "布袋里桌球、撞球班","url": "","address": "台南市長和路四段231巷60弄41號","zip": 709,"city": "安南區","country": "布袋里","lon": 120.207,"lat": 23.064,"zoom": 16,"phone": "","mobile": "","fax": "","contemail": "","opentime": "布袋里活動中心","logourl": " ","submitter": 35,"status": 1,"date": 1260244239,"hits": 613,"rating": 0.0000,"votes": 0,"comments": 0}, {"lid": 218,"cid": 67,"title": "阿拉伯肚皮舞班","url": "","address": "台南市大武街161號","zip": 704,"city": "北區","country": "實踐里","lon": 120.216,"lat": 23.0133,"zoom": 16,"phone": "","mobile": "","fax": "","contemail": "","opentime": "實踐社區活中心","logourl": " ","submitter": 35,"status": 1,"date": 1260244155,"hits": 555,"rating": 0.0000,"votes": 0,"comments": 0}, {"lid": 220,"cid": 24,"title": "東聖標準舞","url": "","address": "台南市中華東路二段133巷57弄34號","zip": 701,"city": "東區","country": "東聖里","lon": 120.235,"lat": 22.9853,"zoom": 16,"phone": "","mobile": "","fax": "","contemail": "","opentime": "東聖里活動中心","logourl": " ","submitter": 35,"status": 1,"date": 1260244012,"hits": 488,"rating": 0.0000,"votes": 0,"comments": 0}, {"lid": 221,"cid": 58,"title": "裕民土風舞","url": "","address": "台南市臨安路二段93號","zip": 704,"city": "北區","country": "裕民里","lon": 120.199,"lat": 23.0041,"zoom": 16,"phone": "","mobile": "","fax": "","contemail": "","opentime": "裕民社區活動中心","logourl": " ","submitter": 35,"status": 1,"date": 1260243952,"hits": 451,"rating": 0.0000,"votes": 0,"comments": 0}, {"lid": 222,"cid": 44,"title": "墊上有氧運動","url": "","address": "台南市南寧街47號之2","zip": 701,"city": "中西區","country": "大南進學里","lon": 120.201,"lat": 22.9849,"zoom": 16,"phone": "","mobile": "","fax": "","contemail": "","opentime": "大南進學里活動中心","logourl": " ","submitter": 35,"status": 1,"date": 1260243922,"hits": 697,"rating": 0.0000,"votes": 0,"comments": 0}, {"lid": 223,"cid": 24,"title": "灣里兒童舞蹈班","url": "","address": "台南市灣裡路67號","zip": 702,"city": "南區","country": "","lon": 120.181,"lat": 22.9331,"zoom": 16,"phone": "","mobile": "","fax": "","contemail": "","opentime": "灣里聯合活動中心","logourl": " ","submitter": 35,"status": 1,"date": 1260243839,"hits": 554,"rating": 0.0000,"votes": 0,"comments": 0}, {"lid": 224,"cid": 135,"title": "灣里瑜珈班","url": "","address": "台南市灣裡路67號","zip": 702,"city": "南區","country": "","lon": 120.181,"lat": 22.9323,"zoom": 16,"phone": "","mobile": "","fax": "","contemail": "","opentime": "灣里聯合活動中心","logourl": " ","submitter": 35,"status": 1,"date": 1260243663,"hits": 646,"rating": 0.0000,"votes": 0,"comments": 0}, {"lid": 225,"cid": 135,"title": "東聖里養生瑜珈班","url": "","address": "台南市中華東路二段133巷57弄34號","zip": 701,"city": "東區","country": "東聖里","lon": 120.235,"lat": 22.9854,"zoom": 16,"phone": "","mobile": "","fax": "","contemail": "","opentime": "東聖里活動中心","logourl": " ","submitter": 35,"status": 1,"date": 1260243591,"hits": 581,"rating": 0.0000,"votes": 0,"comments": 0}, {"lid": 226,"cid": 135,"title": "和順瑜珈班","url": "","address": "台南市公園南路406號","zip": 704,"city": "北區","country": "和順里","lon": 120.201,"lat": 23.0039,"zoom": 16,"phone": "","mobile": "","fax": "","contemail": "","opentime": "和順里活動中心","logourl": " ","submitter": 35,"status": 1,"date": 1260243453,"hits": 444,"rating": 0.0000,"votes": 0,"comments": 0}, {"lid": 227,"cid": 69,"title": "兒童體適能","url": "","address": "台南市南寧街47號之2","zip": 701,"city": "東區","country": "大南進學里","lon": 120.201,"lat": 22.9848,"zoom": 16,"phone": "","mobile": "","fax": "","contemail": "","opentime": "大南進學里活動中心","logourl": " ","submitter": 35,"status": 1,"date": 1260243398,"hits": 930,"rating": 0.0000,"votes": 0,"comments": 0}, {"lid": 228,"cid": 68,"title": "裕民有氧舞蹈班","url": "","address": "台南市臨安路二段93號","zip": 704,"city": "北區","country": "裕民里","lon": 120.199,"lat": 23.0041,"zoom": 16,"phone": "","mobile": "","fax": "","contemail": "","opentime": "裕民社區活動中心","logourl": " ","submitter": 35,"status": 1,"date": 1260243339,"hits": 528,"rating": 0.0000,"votes": 0,"comments": 0}, {"lid": 229,"cid": 135,"title": "瑜珈、彼拉提斯塑身班","url": "","address": "台南市南寧街47號之2","zip": 701,"city": "中西區","country": "大南進學里","lon": 120.201,"lat": 22.9849,"zoom": 16,"phone": "","mobile": "","fax": "","contemail": "","opentime": "大南進學里活動中心","logourl": " ","submitter": 35,"status": 1,"date": 1260243254,"hits": 506,"rating": 0.0000,"votes": 0,"comments": 0}, {"lid": 230,"cid": 135,"title": "保安瑜珈舞班","url": "","address": "台南市尊王路53號","zip": 700,"city": "中西區","country": "保安里","lon": 120.196,"lat": 22.9916,"zoom": 16,"phone": "","mobile": "","fax": "","contemail": "","opentime": "保安里活動中心","logourl": " ","submitter": 35,"status": 1,"date": 1260243170,"hits": 604,"rating": 0.0000,"votes": 0,"comments": 0}, {"lid": 231,"cid": 31,"title": "大涼里桌球訓練班","url": "","address": "台南市府前路二段258巷55號","zip": 700,"city": "中西區","country": "大涼里","lon": 120.191,"lat": 22.9933,"zoom": 16,"phone": "","mobile": "","fax": "","contemail": "","opentime": "大涼里社區活動中心","logourl": " ","submitter": 35,"status": 1,"date": 1260243086,"hits": 735,"rating": 0.0000,"votes": 0,"comments": 0}, {"lid": 232,"cid": 106,"title": "安慶里宇宙健身操","url": "","address": "台南市長溪路一段168巷133號","zip": 709,"city": "安南區","country": "安慶里","lon": 120.21,"lat": 23.0381,"zoom": 16,"phone": "","mobile": "","fax": "","contemail": "","opentime": "安慶里活動中心","logourl": " ","submitter": 35,"status": 1,"date": 1260243045,"hits": 621,"rating": 0.0000,"votes": 0,"comments": 0}, {"lid": 233,"cid": 58,"title": "龍盛土風舞研習社","url": "","address": "台南市民權路三段232號","zip": 700,"city": "中西區","country": "","lon": 120.194,"lat": 22.9981,"zoom": 16,"phone": "","mobile": "","fax": "","contemail": "","opentime": "龍盛社區活動中心","logourl": " ","submitter": 35,"status": 1,"date": 1260243011,"hits": 430,"rating": 0.0000,"votes": 0,"comments": 0}, {"lid": 234,"cid": 58,"title": "龍盛土風舞高級班","url": "","address": "台南市民權路三段232號","zip": 700,"city": "中西區","country": "","lon": 120.194,"lat": 22.9982,"zoom": 16,"phone": "","mobile": "","fax": "","contemail": "","opentime": "龍盛社區活動中心","logourl": " ","submitter": 35,"status": 1,"date": 1260242943,"hits": 450,"rating": 0.0000,"votes": 0,"comments": 0}, {"lid": 235,"cid": 85,"title": "東聖合氣道","url": "","address": "台南市中華東路二段133巷57弄34號","zip": 701,"city": "東區","country": "東聖里","lon": 120.235,"lat": 22.9854,"zoom": 16,"phone": "","mobile": "","fax": "","contemail": "","opentime": "東聖里活動中心","logourl": " ","submitter": 35,"status": 1,"date": 1260242863,"hits": 744,"rating": 0.0000,"votes": 0,"comments": 0}, {"lid": 236,"cid": 68,"title": "崇德有氧運動班","url": "","address": "台南市崇德七街30巷2號","zip": 701,"city": "東區","country": "崇德里","lon": 120.228,"lat": 22.9754,"zoom": 16,"phone": "","mobile": "","fax": "","contemail": "","opentime": "崇德里活動中心","logourl": " ","submitter": 35,"status": 1,"date": 1260242821,"hits": 802,"rating": 0.0000,"votes": 0,"comments": 0}, {"lid": 237,"cid": 76,"title": "安慶國標舞","url": "","address": "台南市安南區長溪路一段168巷133號","zip": 709,"city": "安南區","country": "安慶里","lon": 120.21,"lat": 23.0386,"zoom": 16,"phone": "","mobile": "","fax": "","contemail": "","opentime": "安慶里活動中心","logourl": " ","submitter": 35,"status": 1,"date": 1260242771,"hits": 744,"rating": 0.0000,"votes": 0,"comments": 0}, {"lid": 238,"cid": 24,"title": "大人拉丁基礎班","url": "","address": "台南市和緯路一段1號","zip": 704,"city": "北區","country": "大仁里","lon": 120.216,"lat": 23.0094,"zoom": 16,"phone": "(06)2517292","mobile": "","fax": "","contemail": "","opentime": "每週一PM8:00-10:00","logourl": " ","submitter": 35,"status": 1,"date": 1260242721,"hits": 865,"rating": 0.0000,"votes": 0,"comments": 0}, {"lid": 239,"cid": 60,"title": "金華元極舞","url": "","address": "台南市慶南街201號","zip": 702,"city": "南區","country": "金華里","lon": 120.19,"lat": 22.9804,"zoom": 16,"phone": "","mobile": "","fax": "","contemail": "","opentime": "金華社區活動中心","logourl": " ","submitter": 35,"status": 1,"date": 1260242605,"hits": 478,"rating": 0.0000,"votes": 0,"comments": 0}, {"lid": 240,"cid": 24,"title": "崇德流行創作舞蹈班","url": "","address": "台南市崇德七街30巷2號","zip": 701,"city": "東區","country": "崇德里","lon": 120.228,"lat": 22.9752,"zoom": 16,"phone": "(06)2674133","mobile": 0987264133,"fax": "","contemail": "","opentime": "每週六AM8:00-10:00","logourl": " ","submitter": 35,"status": 1,"date": 1260242220,"hits": 547,"rating": 0.0000,"votes": 0,"comments": 0}, {"lid": 241,"cid": 59,"title": "裕民韻律舞班","url": "","address": "台南市臨安路二段93號","zip": 704,"city": "北區","country": "裕民里","lon": 120.199,"lat": 23.0042,"zoom": 16,"phone": "","mobile": "","fax": "","contemail": "","opentime": "裕民社區活動中心","logourl": " ","submitter": 35,"status": 1,"date": 1260242160,"hits": 442,"rating": 0.0000,"votes": 0,"comments": 0}, {"lid": 242,"cid": 24,"title": "保安交際舞班","url": "","address": "台南市尊王路53號","zip": 701,"city": "中西區","country": "保安里","lon": 120.196,"lat": 22.9915,"zoom": 16,"phone": "","mobile": "","fax": "","contemail": "","opentime": "保安里活動中心","logourl": " ","submitter": 35,"status": 1,"date": 1260242096,"hits": 919,"rating": 0.0000,"votes": 0,"comments": 0}, {"lid": 243,"cid": 58,"title": "崇德土風舞班","url": "","address": "台南市崇德七街30巷2號","zip": 700,"city": "東區","country": "崇德里","lon": 120.228,"lat": 22.9752,"zoom": 16,"phone": "","mobile": "","fax": "","contemail": "","opentime": "崇德里社區活動中心","logourl": " ","submitter": 35,"status": 1,"date": 1260242049,"hits": 493,"rating": 0.0000,"votes": 0,"comments": 0}, {"lid": 244,"cid": 135,"title": "進階養生瑜珈班","url": "","address": "台南市中華東路二段133巷57弄34號","zip": 701,"city": "東區","country": "東聖里","lon": 120.235,"lat": 22.9853,"zoom": 16,"phone": "","mobile": "","fax": "","contemail": "","opentime": "東聖里活動中心","logourl": " ","submitter": 35,"status": 1,"date": 1260241979,"hits": 409,"rating": 0.0000,"votes": 0,"comments": 0}, {"lid": 245,"cid": 24,"title": "東聖里交際舞班","url": "","address": "台南市中華東路二段133巷57弄34號","zip": 701,"city": "東區","country": "東聖里","lon": 120.235,"lat": 22.9854,"zoom": 16,"phone": "","mobile": "","fax": "","contemail": "","opentime": "東聖里活動中心","logourl": " ","submitter": 35,"status": 1,"date": 1260241279,"hits": 564,"rating": 0.0000,"votes": 0,"comments": 0}, {"lid": 246,"cid": 65,"title": "大仁社區社交舞基礎班","url": "","address": "台南市和緯路一段1號(大仁里活動中心)","zip": 704,"city": "北區","country": "大仁里","lon": 120.216,"lat": 23.0095,"zoom": 16,"phone": "(06)2832365","mobile": "","fax": "","contemail": "","opentime": "每週三PM8:00-10:00","logourl": " ","submitter": 35,"status": 1,"date": 1260240975,"hits": 1168,"rating": 0.0000,"votes": 0,"comments": 0}, {"lid": 247,"cid": 67,"title": "大福肚皮舞基礎班","url": "","address": "台南市立德九路46號(大福社區活動中心)","zip": 701,"city": "東區","country": "大福里","lon": 120.215,"lat": 22.9773,"zoom": 16,"phone": "","mobile": 0986252978,"fax": "","contemail": "","opentime": "每週二六PM8:30-9:30","logourl": " ","submitter": 35,"status": 1,"date": 1260240907,"hits": 614,"rating": 0.0000,"votes": 0,"comments": 0}, {"lid": 248,"cid": 59,"title": "小康媽媽韻律班","url": "","address": "台南市實踐街17之1號(小康里活動中心)","zip": 704,"city": "北區","country": "小康里","lon": 120.218,"lat": 23.014,"zoom": 16,"phone": "(06)2520966","mobile": 0937668222,"fax": "","contemail": "","opentime": "每週一PM7:00-9:00","logourl": " ","submitter": 35,"status": 1,"date": 1260240841,"hits": 555,"rating": 0.0000,"votes": 0,"comments": 0}, {"lid": 249,"cid": 135,"title": "中西社區瑜珈班","url": "","address": "台南市長榮路二段17號(中西社區活動中心)","zip": 701,"city": "東區","country": "中西里","lon": 120.22,"lat": 22.9893,"zoom": 16,"phone": "","mobile": 0931989998,"fax": "","contemail": "","opentime": "每週二四PM7:30-8:30
","logourl": " ","submitter": 35,"status": 1,"date": 1260240783,"hits": 723,"rating": 0.0000,"votes": 0,"comments": 0}, {"lid": 250,"cid": 49,"title": "龍慶社區空手道初級班","url": "","address": "台南市公園南路39號4樓(公園里活動中心)","zip": 704,"city": "北區","country": "公園里","lon": 120.212,"lat": 23.0003,"zoom": 16,"phone": "","mobile": 0955526636,"fax": "","contemail": "","opentime": "每週一三五PM7:00-9:00","logourl": " ","submitter": 35,"status": 1,"date": 1260240727,"hits": 605,"rating": 0.0000,"votes": 0,"comments": 0}, {"lid": 251,"cid": 49,"title": "龍慶社區空手道進階班","url": "","address": "台南市公園南路39號4樓(公園里活動中心)","zip": 704,"city": "北區","country": "公園里","lon": 120.212,"lat": 23.0003,"zoom": 16,"phone": "(06)2281020","mobile": "","fax": "","contemail": "","opentime": "每週一三五PM7:00-9:00
","logourl": " ","submitter": 35,"status": 1,"date": 1260240640,"hits": 737,"rating": 0.0000,"votes": 0,"comments": 0}, {"lid": 252,"cid": 135,"title": "文平瑜珈班","url": "","address": "台南市中華西路二段1巷1號(文平里活動中心)","zip": 709,"city": "安平區","country": "文平里","lon": 120.187,"lat": 22.987,"zoom": 16,"phone": "","mobile": 0938886679,"fax": "","contemail": "","opentime": "每週五PM7:30-9:30
","logourl": " ","submitter": 35,"status": 1,"date": 1260240519,"hits": 538,"rating": 0.0000,"votes": 0,"comments": 0}, {"lid": 253,"cid": 65,"title": "文南社交舞初級班","url": "","address": "台南市建南路154號3樓(文南里活動中心)","zip": 702,"city": "南區","country": "文南里","lon": 120.19,"lat": 22.9851,"zoom": 16,"phone": "(06)2635310","mobile": 0932801419,"fax": "","contemail": "","opentime": "每週二PM8:00-10:00","logourl": " ","submitter": 35,"status": 1,"date": 1260240429,"hits": 707,"rating": 0.0000,"votes": 0,"comments": 0}, {"lid": 254,"cid": 74,"title": "文南健康運動舞","url": "","address": "台南市建南路154號3樓(文南里活動中心)","zip": 702,"city": "南區","country": "文南里","lon": 120.19,"lat": 22.9851,"zoom": 16,"phone": "(06)2635310","mobile": 0932801419,"fax": "","contemail": "","opentime": "每週一四PM4:30-5:30
","logourl": " ","submitter": 35,"status": 1,"date": 1260240334,"hits": 675,"rating": 0.0000,"votes": 0,"comments": 0}, {"lid": 255,"cid": 135,"title": "文南瑜珈班","url": "","address": "台南市建南路154號3樓(文南里活動中心)","zip": 702,"city": "南區","country": "文南里","lon": 120.19,"lat": 22.985,"zoom": 16,"phone": "","mobile": 0937367103,"fax": "","contemail": "","opentime": "每週一三PM7:00-8:00","logourl": " ","submitter": 35,"status": 1,"date": 1260240253,"hits": 443,"rating": 0.0000,"votes": 0,"comments": 0}, {"lid": 256,"cid": 47,"title": "平通太極拳","url": "","address": "台南市平通路580巷102號(平通里活動中心)","zip": 708,"city": "安平區","country": "平通里","lon": 120.17,"lat": 22.9955,"zoom": 16,"phone": "(06)2971897","mobile": 0931730897,"fax": "","contemail": "","opentime": "每週三五AM6:00-7:00
","logourl": " ","submitter": 35,"status": 1,"date": 1260240216,"hits": 653,"rating": 0.0000,"votes": 0,"comments": 0}, {"lid": 257,"cid": 135,"title": "平通瑜珈班","url": "","address": "台南市平通路580巷102號(平通里活動中心)","zip": 708,"city": "安平區","country": "平通里","lon": 120.17,"lat": 22.9956,"zoom": 16,"phone": "(06)2971888","mobile": "","fax": "","contemail": "","opentime": "每週三五PM8:30-9:30","logourl": " ","submitter": 35,"status": 1,"date": 1260240095,"hits": 673,"rating": 0.0000,"votes": 0,"comments": 0}, {"lid": 258,"cid": 24,"title": "正覺健康舞班","url": "","address": "台南市公園路769巷20弄5號(正覺里活動中心)","zip": 704,"city": "北區","country": "正覺里","lon": 120.215,"lat": 23.0189,"zoom": 16,"phone": "(06)2822827","mobile": "","fax": "","contemail": "","opentime": "每週五AM7:00-9:00
","logourl": " ","submitter": 35,"status": 1,"date": 1260239930,"hits": 506,"rating": 0.0000,"votes": 0,"comments": 0}, {"lid": 259,"cid": 75,"title": "正覺養生氣功班","url": "","address": "台南市公園路769巷20弄5號(正覺里活動中心)","zip": 704,"city": "北區","country": "正覺里","lon": 120.215,"lat": 23.0189,"zoom": 16,"phone": "(06)2822827","mobile": "","fax": "","contemail": "","opentime": "每週一PM7:30-9:30","logourl": " ","submitter": 35,"status": 1,"date": 1260239799,"hits": 522,"rating": 0.0000,"votes": 0,"comments": 0}, {"lid": 260,"cid": 58,"title": "永祥土風舞班","url": "","address": "台南市實踐街85巷2號(文祥里活動中心)","zip": 704,"city": "北區","country": "永祥里","lon": 120.22,"lat": 23.0145,"zoom": 16,"phone": "(06)2832280","mobile": 0932709209,"fax": "","contemail": "","opentime": "每週二四AM7:00-8:00","logourl": " ","submitter": 35,"status": 1,"date": 1260239695,"hits": 467,"rating": 0.0000,"votes": 0,"comments": 0}, {"lid": 261,"cid": 135,"title": "永祥瑜珈班","url": "","address": "台南市實踐街85巷2號(文祥里活動中心)","zip": 704,"city": "北區","country": "永祥里","lon": 120.22,"lat": 23.0147,"zoom": 16,"phone": "(06)2832280","mobile": 0932709209,"fax": "","contemail": "","opentime": "每週一PM7:30-9:30","logourl": " ","submitter": 35,"status": 1,"date": 1260239547,"hits": 433,"rating": 0.0000,"votes": 0,"comments": 0}, {"lid": 262,"cid": 135,"title": "石門瑜珈班","url": "","address": "台南市安北路16巷17弄45號二樓(石門社區活動中心)","zip": 708,"city": "安平區","country": "","lon": 120.168,"lat": 23.0003,"zoom": 16,"phone": "","mobile": 0915011388,"fax": "","contemail": "","opentime": "每週四PM7:30-9:30","logourl": " ","submitter": 35,"status": 1,"date": 1260239492,"hits": 470,"rating": 0.0000,"votes": 0,"comments": 0}, {"lid": 263,"cid": 47,"title": "古傳陳式太極拳","url": "","address": "台南市和善街98巷7號(光賢里活動中心)","zip": 700,"city": "中西區","country": "光賢里","lon": 120.19,"lat": 23.0028,"zoom": 16,"phone": "(06)2598199","mobile": 0933355755,"fax": "","contemail": "","opentime": "每週四PM7:00-9:00","logourl": " ","submitter": 35,"status": 1,"date": 1260239348,"hits": 715,"rating": 10.0000,"votes": 3,"comments": 0}, {"lid": 264,"cid": 67,"title": "肚皮舞研習班","url": "","address": "台南市育安街211號(安順里活動中心)","zip": 709,"city": "安南區","country": "安順里","lon": 120.215,"lat": 23.0508,"zoom": 16,"phone": "","mobile": 0910582369,"fax": "","contemail": "","opentime": "每週四PM7:30-9:30
","logourl": " ","submitter": 35,"status": 1,"date": 1260239315,"hits": 655,"rating": 0.0000,"votes": 0,"comments": 0}, {"lid": 265,"cid": 24,"title": "育平健康舞班","url": "","address": "台南市府平路374號(育平里活動中心)","zip": 708,"city": "安平區","country": "育平里","lon": 120.167,"lat": 22.9871,"zoom": 16,"phone": "","mobile": 0914070523,"fax": "","contemail": "","opentime": "每週二PM7:30-9:30","logourl": " ","submitter": 35,"status": 1,"date": 1260239281,"hits": 538,"rating": 0.0000,"votes": 0,"comments": 0}, {"lid": 266,"cid": 59,"title": "忠誠社交、韻律舞班","url": "","address": "台南市世平路69號(海灘忠誠社區活動中心)","zip": 708,"city": "安平區","country": "","lon": 120.149,"lat": 22.9968,"zoom": 16,"phone": "(06)3910699","mobile": "","fax": "","contemail": "","opentime": "每週一三PM7:30-9:30
","logourl": " ","submitter": 35,"status": 1,"date": 1260239239,"hits": 450,"rating": 0.0000,"votes": 0,"comments": 0}, {"lid": 267,"cid": 24,"title": "怡平現代健康舞班","url": "","address": "台南市平通路366號2樓(怡平里活動中心)","zip": 708,"city": "安平區","country": "怡平里","lon": 120.178,"lat": 22.9928,"zoom": 16,"phone": "","mobile": 0932704111,"fax": "","contemail": "","opentime": "每週四PM7:30-9:30","logourl": " ","submitter": 35,"status": 1,"date": 1260239191,"hits": 640,"rating": 0.0000,"votes": 0,"comments": 0}, {"lid": 268,"cid": 48,"title": "怡平跆拳道班","url": "","address": "台南市平通路366號2樓(怡平里活動中心)","zip": 708,"city": "安平區","country": "怡平里","lon": 120.178,"lat": 22.9928,"zoom": 16,"phone": "","mobile": 0932704111,"fax": "","contemail": "","opentime": "每週日PM4:00-6:00","logourl": " ","submitter": 35,"status": 1,"date": 1260239140,"hits": 679,"rating": 0.0000,"votes": 0,"comments": 0}, {"lid": 269,"cid": 76,"title": "明興國標舞班","url": "","address": "台南市德興路88號(明興社區活動中心二樓)","zip": 702,"city": "南區","country": "","lon": 120.193,"lat": 22.9627,"zoom": 16,"phone": "","mobile": 0933911599,"fax": "","contemail": "","opentime": "每週一四PM7:30-8:30","logourl": " ","submitter": 35,"status": 1,"date": 1260239064,"hits": 608,"rating": 0.0000,"votes": 0,"comments": 0}, {"lid": 270,"cid": 31,"title": "松柏桌球社","url": "","address": "台南市南門路263號(松柏育樂中心2樓)","zip": 702,"city": "南區","country": "","lon": 120.205,"lat": 22.9799,"zoom": 16,"phone": "(06)2158077","mobile": "","fax": "","contemail": "","opentime": "每週一至日AM7:00-12:00
                    PM1:30-7:00","logourl": " ","submitter": 35,"status": 1,"date": 1260239024,"hits": 570,"rating": 0.0000,"votes": 0,"comments": 0}, {"lid": 271,"cid": 47,"title": "張三豐三十八式及鬆身健身法","url": "","address": "台南市南門路263號(松柏育樂中心東側地下室)","zip": 702,"city": "南區","country": "","lon": 120.205,"lat": 22.9798,"zoom": 16,"phone": "(06)2158077","mobile": "","fax": "","contemail": "","opentime": "每週二四PM2:00-4:00","logourl": " ","submitter": 35,"status": 1,"date": 1260238783,"hits": 570,"rating": 0.0000,"votes": 0,"comments": 0}, {"lid": 272,"cid": 94,"title": "松柏圍棋社","url": "","address": "台南市南門路263號(松柏育樂中心圍棋室)","zip": 702,"city": "南區","country": "","lon": 120.205,"lat": 22.9799,"zoom": 16,"phone": "(06)2158077","mobile": "","fax": "","contemail": "","opentime": "每週一至五PM1:30-5:30
","logourl": " ","submitter": 35,"status": 1,"date": 1260238647,"hits": 683,"rating": 0.0000,"votes": 0,"comments": 0}, {"lid": 273,"cid": 58,"title": "松柏土風舞班","url": "","address": "台南市南門路263號(松柏育樂中心舞蹈教室)","zip": 702,"city": "南區","country": "","lon": 120.205,"lat": 22.9798,"zoom": 16,"phone": "(06)2158077","mobile": "","fax": "","contemail": "","opentime": "每週二四PM2:00-4:00","logourl": " ","submitter": 35,"status": 1,"date": 1260179197,"hits": 455,"rating": 0.0000,"votes": 0,"comments": 0}, {"lid": 274,"cid": 135,"title": "松柏瑜珈進階班","url": "","address": "台南市南門路263號(松柏育樂中心韻律教室)","zip": 702,"city": "南區","country": "","lon": 120.205,"lat": 22.9798,"zoom": 16,"phone": "(06)2158077","mobile": "","fax": "","contemail": "","opentime": "每週一三AM10:20-11:20","logourl": " ","submitter": 35,"status": 1,"date": 1260179139,"hits": 413,"rating": 0.0000,"votes": 0,"comments": 0}, {"lid": 275,"cid": 135,"title": "松柏瑜珈基礎班","url": "","address": "台南市南門路263號(松柏育樂中心韻律教室)","zip": 702,"city": "南區","country": "","lon": 120.205,"lat": 22.9798,"zoom": 16,"phone": "(06)2158077","mobile": "","fax": "","contemail": "","opentime": "每週二PM3:30-4:30","logourl": " ","submitter": 35,"status": 1,"date": 1260178936,"hits": 389,"rating": 0.0000,"votes": 0,"comments": 0}, {"lid": 276,"cid": 59,"title": "松柏韻律舞蹈班","url": "","address": "台南市南門路263號(松柏育樂中心韻律教室)","zip": 702,"city": "南區","country": "","lon": 120.205,"lat": 22.9798,"zoom": 16,"phone": "(06)2158077","mobile": "","fax": "","contemail": "","opentime": "每週一三五AM8:00-9:00","logourl": " ","submitter": 35,"status": 1,"date": 1260179066,"hits": 530,"rating": 0.0000,"votes": 0,"comments": 0}, {"lid": 278,"cid": 75,"title": "保安醫學氣功健身運動班","url": "","address": "台南市長和街三段96號(保安宮廣場)","zip": 709,"city": "安南區","country": "","lon": 120.216,"lat": 23.0636,"zoom": 16,"phone": "(06)2623016","mobile": 0911715777,"fax": "","contemail": "","opentime": "每週一三PM7:30-8:30
","logourl": " ","submitter": 35,"status": 1,"date": 1260178818,"hits": 536,"rating": 0.0000,"votes": 0,"comments": 0}, {"lid": 279,"cid": 24,"title": "海東舞蹈班","url": "","address": "台南市海佃路二段509巷65號(海東社區活動中心)","zip": 709,"city": "安南區","country": "","lon": 120.185,"lat": 23.0415,"zoom": 16,"phone": "(06)2567139","mobile": "","fax": "","contemail": "","opentime": "每週三AM7:00-9:00","logourl": " ","submitter": 35,"status": 1,"date": 1260178760,"hits": 563,"rating": 0.0000,"votes": 0,"comments": 0}, {"lid": 280,"cid": 63,"title": "崇明十八式氣功","url": "","address": "台南市崇明路700號(崇明國中)","zip": 701,"city": "東區","country": "","lon": 120.225,"lat": 22.97,"zoom": 16,"phone": "(06)2680796","mobile": "","fax": "","contemail": "","opentime": "每週一至六AM5:40-6:40
","logourl": " ","submitter": 35,"status": 1,"date": 1260178707,"hits": 719,"rating": 0.0000,"votes": 0,"comments": 0}, {"lid": 281,"cid": 59,"title": "崇學氧養韻律班","url": "","address": "台南市崇學路98號(崇學國小崇德樓)","zip": 701,"city": "東區","country": "","lon": 120.224,"lat": 22.9795,"zoom": 16,"phone": "(06)2377616","mobile": 0987234133,"fax": "","contemail": "","opentime": "每週二五PM7:00-8:00","logourl": " ","submitter": 35,"status": 1,"date": 1260178654,"hits": 444,"rating": 0.0000,"votes": 0,"comments": 0}, {"lid": 282,"cid": 24,"title": "流行舞蹈創作班","url": "","address": "台南市大安街135號(理想大安社區活動中心)","zip": 709,"city": "安南區","country": "","lon": 120.193,"lat": 23.0333,"zoom": 16,"phone": "(06)2562087","mobile": "","fax": "","contemail": "","opentime": "每週二AM7:30-9:30","logourl": " ","submitter": 35,"status": 1,"date": 1260178571,"hits": 454,"rating": 0.0000,"votes": 0,"comments": 0}, {"lid": 283,"cid": 80,"title": "大安爵士熱舞班","url": "","address": "台南市大安街135號(理想大安聯合活動中心)","zip": 709,"city": "安南區","country": "","lon": 120.193,"lat": 23.0333,"zoom": 16,"phone": "(06)2562087","mobile": "","fax": "","contemail": "","opentime": "每週一PM7:30-9:30","logourl": " ","submitter": 35,"status": 1,"date": 1260178512,"hits": 651,"rating": 0.0000,"votes": 0,"comments": 0}, {"lid": 284,"cid": 60,"title": "華興振興元極舞班","url": "","address": "台南市林森路三段181號(華興振興里聯合活動中心)","zip": 704,"city": "北區","country": "華興振興里","lon": 120.224,"lat": 23.0067,"zoom": 16,"phone": "(06)2080808","mobile": "","fax": "","contemail": "","opentime": "每週四AM7:30-9:30","logourl": " ","submitter": 35,"status": 1,"date": 1260178400,"hits": 527,"rating": 0.0000,"votes": 0,"comments": 0}, {"lid": 285,"cid": 65,"title": "華興振興社交舞班","url": "","address": "台南市林森路三段181號(華興振興里聯合活動中心)","zip": 704,"city": "北區","country": "華興振興里","lon": 120.224,"lat": 23.0067,"zoom": 16,"phone": "(06)2080808","mobile": "","fax": "","contemail": "","opentime": "每週四AM7:30-9:30","logourl": " ","submitter": 35,"status": 1,"date": 1260178346,"hits": 734,"rating": 0.0000,"votes": 0,"comments": 0}, {"lid": 286,"cid": 135,"title": "開南瑜珈班","url": "","address": "台南市新建路47號3樓(開里活動中心)","zip": 702,"city": "南區","country": "開南里","lon": 120.185,"lat": 22.9671,"zoom": 16,"phone": "","mobile": 0931730796,"fax": "","contemail": "","opentime": "每週三PM7:00-9:00","logourl": " ","submitter": 35,"status": 1,"date": 1260178285,"hits": 555,"rating": 0.0000,"votes": 0,"comments": 0},